,Shop,Address,Latitude,Longitude,Borough
0,APR Chicken and Pizza Limited,"178 Ripple Rd, Barking IG11 7PR, UK",51.53406039999999,0.084489,Barking and Dagenham
1,Angies Kebab Dagenham,"505 Gale St, Dagenham RM9 4TP, UK",51.5398439,0.1278586,Barking and Dagenham
2,Best Bite Chicken,"481 Wood Ln, Dagenham RM8 3NT, UK",51.56022429999999,0.1477518,Barking and Dagenham
3,Chicken Express,"213 Reede Rd, Dagenham RM10 8EH, UK",51.54528329999999,0.1608485,Barking and Dagenham
4,Chicken Max,"57 Lockwell Rd, Dagenham RM10 7RE, UK",51.55386799999999,0.1491179,Barking and Dagenham
5,Chicken Rice,"33 Longbridge Rd, Barking IG11 8TN, UK",51.5403099,0.08234369999999999,Barking and Dagenham
6,Chicken Spot,"110 High Rd, Dagenham, Romford RM6 6NX, UK",51.57161869999999,0.1357505,Barking and Dagenham
7,Chunky Chicken,"70 Longbridge Rd, Barking IG11 8SF, UK",51.541,0.083825,Barking and Dagenham
8,Dixy Chicken,"258 Rainham Rd S, Dagenham RM10 7UU, UK",51.550982,0.1613165,Barking and Dagenham
9,Favorite Chicken & Ribs,"20 Woodward Rd, Dagenham RM9 4SH, UK",51.538857,0.126679,Barking and Dagenham
10,Favorite Chicken & Ribs,"102 Dagenham Rd, Rush Green, Dagenham, Romford RM7 0TJ, UK",51.56459,0.1757188,Barking and Dagenham
11,Favorite Chicken & Ribs,"Faircross Parade, 23 Upney Ln, Barking IG11 8UW, UK",51.5456762,0.0941925,Barking and Dagenham
12,GRILLER,"49 High Rd, Dagenham, Romford RM6 6QJ, UK",51.5712226,0.1322107,Barking and Dagenham
13,Gourmet Hub Limited,"206 High Rd, Dagenham, Romford RM6 6LS, UK",51.572038,0.140835,Barking and Dagenham
14,Griller,"41 Station Parade, Ilford, Barking IG11 8EB, UK",51.5392559,0.08093199999999999,Barking and Dagenham
15,Hot & Tasty,"806 Green Ln, Dagenham RM8 1YT, UK",51.56176,0.12424,Barking and Dagenham
16,KFC,"39 Station Parade, Barking IG11 8EB, UK",51.5391583,0.08080459999999999,Barking and Dagenham
17,KFC,"Unit 6, 6 Merrielands Cres, Dagenham RM9 6SJ, UK",51.5309654,0.1448247,Barking and Dagenham
18,Kennedy Chicken & Pizza,"66 Station Parade, Barking IG11 8EA, UK",51.53935019999999,0.0817517,Barking and Dagenham
19,Mamas Peri Peri,"361 Ripple Rd, Barking IG11 9PN, UK",51.5357723,0.0942167,Barking and Dagenham
20,Mississippi Chicken,"225 Oxlow Ln, Dagenham RM10 7YA, UK",51.55137260000001,0.1539179,Barking and Dagenham
21,Munchies,"32 Ripple Rd, Barking IG11 7PG, UK",51.5368667,0.0807871,Barking and Dagenham
22,Original Fried Chicken,"206 High Rd, Dagenham, Romford RM6 6LS, UK",51.572038,0.140835,Barking and Dagenham
23,Papa's Peri Peri Grill,"732 Green Ln, Dagenham RM8 1YX, UK",51.56260409999999,0.1207571,Barking and Dagenham
24,Red Rooster,"301 Heathway, Dagenham RM9 5AQ, UK",51.542454,0.147854,Barking and Dagenham
25,Shajhan Indian Takeaway,"670 Rainham Rd S, Dagenham RM10 8YS, UK",51.540593,0.1657224,Barking and Dagenham
26,Tasty Chicken,"115-117 Ripple Rd, Barking IG11 7NY, UK",51.53579690000001,0.0823434,Barking and Dagenham
27,Tasty Chicken & Ribs,"431 Porters Ave, Dagenham RM9 4ND, UK",51.5416064,0.1144421,Barking and Dagenham
28,The Dixy Chicken,"54 Station Parade, Barking IG11 8EB, UK",51.539105,0.08143489999999999,Barking and Dagenham
29,The Grub,"732 Green Ln, Dagenham RM8 1YX, UK",51.5625959,0.1207646,Barking and Dagenham
30,The Perfect Fried Chicken,"116 Becontree Ave, Dagenham RM8 2TS, UK",51.5545121,0.118162,Barking and Dagenham
31,Yong’s Chinese Take-Away,"209 Reede Rd, Dagenham RM10 8EH, UK",51.5464679,0.1598683,Barking and Dagenham
32,Yummy Grill,"70 Wood Ln, Dagenham RM8 2NT, UK",51.551568,0.129349,Barking and Dagenham
33,BANG BANG Chicken,"215A Deansbrook Rd, Edgware HA8 9BU, UK",51.6105744,-0.2578451,Barnet
34,Champs American Fried Chicken,"22 Church Hill Rd, London, Barnet EN4 8TB, UK",51.6414478,-0.162859,Barnet
35,Chicken Cottage,"188A W Hendon Broadway, Hendon, London NW9 7EE, UK",51.57682730000001,-0.2386298,Barnet
36,Chicken Land,"53 Colindale Ave, London NW9 5EP, UK",51.5936446,-0.2542484,Barnet
37,Chicken Valley,"72 High St, Edgware HA8 7EJ, UK",51.6104448,-0.2786281,Barnet
38,Dixy Chicken,"620 Finchley Rd, Golders Green, London NW11 7RR, UK",51.5710074,-0.1950369,Barnet
39,Dixy Fried Chicken,"78 Watling Ave, Edgware HA8 0LU, UK",51.60203449999999,-0.2646032,Barnet
40,Fresh Fry Fish & Chips,"1-2 Western Parade, Great N Rd, New Barnet, Barnet EN5 1AD, UK",51.6463006,-0.1873174,Barnet
41,KFC,"133-135 High St, Barnet EN5 5UZ, UK",51.6558253,-0.2020704,Barnet
42,KFC,"9 Edgware Rd, London NW9 5EB, UK",51.5934444,-0.2582047,Barnet
43,KFC,"89 Ballards Ln, Finchley, London N3 1XY, UK",51.6041452,-0.1899743,Barnet
44,KFC,"13 Watford Way, Hendon, London NW4 3JL, UK",51.58333529999999,-0.2280108,Barnet
45,Kurk Chicken Bar,"139a Ballards Ln, Finchley, London N3 1LJ, UK",51.605152,-0.1886158,Barnet
46,Kurk Grilled Chicken,"64 High St, Edgware HA8 7EJ, UK",51.61024,-0.278354,Barnet
47,Millenium Fried Chicken,"13 Church Rd, Hendon, London NW4 4EB, UK",51.589875,-0.2258365,Barnet
48,Ming Chinese Takeaway,"60 Watling Ave, Edgware HA8 0LT, UK",51.601735,-0.265122,Barnet
49,Ministry of Chicken,"37 Watford Way, Hendon, London NW4 3JH, UK",51.5839241,-0.2286667,Barnet
50,New TENNESSEELAND,"81 Ballards Ln, Finchley, London N3 1XT, UK",51.6038817,-0.1903612,Barnet
51,Pepe's Piri Piri Hendon,"11 Watford Way, Hendon, London NW4 3JL, UK",51.5833004,-0.2279034,Barnet
52,RJ's Chicken Hut,"92 E Barnet Rd, New Barnet, London, Barnet EN4 8RQ, UK",51.6491875,-0.1701622,Barnet
53,Red Rooster Fried Chicken,"113 The Broadway, Mill Hill, London NW7 3TG, UK",51.61582199999999,-0.2452625,Barnet
54,Reggae Spice Edgware,"Silkstream Parade, 3, Watling Ave, Edgware HA8 0EJ, United Kingdom",51.6029608,-0.263477,Barnet
55,Royal Chicken & Pizza,"1178 High Rd, Whetstone, London N20 0LH, UK",51.62785479999999,-0.1744365,Barnet
56,Sam's Chicken,"14 Cricklewood Ln, Cricklewood, London NW2 1EX, UK",51.55705889999999,-0.2144326,Barnet
57,Sam's Chicken Finchley,"351 Ballards Ln, North Finchley, London N12 8LJ, UK",51.6139392,-0.1770187,Barnet
58,Spicy Grill London,"122 Golders Green Rd, Golders Green, London NW11 8HB, UK",51.5739285,-0.2006926,Barnet
59,Sushimania,"210 Station Rd, Edgware HA8 7AR, UK",51.6146246,-0.2754824,Barnet
60,Tasty's / Cha Cha's Chicken & Pizza,"62 High St, Edgware HA8 7EJ, UK",51.610202,-0.27827,Barnet
61,Tennessee Express,"73 Colney Hatch Ln, Muswell Hill, London N10 1LR, UK",51.5992889,-0.1473586,Barnet
62,The Arkley,"Barnet Rd, Barnet EN5 3EP, UK",51.652517,-0.219536,Barnet
63,The Cock Inn,"Chalk Ln, London, Barnet EN4 9HU, UK",51.6545116,-0.154473,Barnet
64,The Jolly Badger Harvester,"128 Hale Ln, Edgware HA8 9RZ, UK",51.617084,-0.2604623,Barnet
65,The Orange Tree,"7 Totteridge Village, Totteridge, London N20 8NX, UK",51.63006499999999,-0.197421,Barnet
66,The Red Lion Stonehouse,"31 High St, Barnet EN5 5UW, UK",51.65245100000001,-0.1990132,Barnet
67,Umi's Grilled Chicken & Pizza,"72 High St, Barnet EN5 5SJ, UK",51.65322700000001,-0.200258,Barnet
68,Zam's Chicken,"Silkstream Parade, 4, Watling Ave, Edgware HA8 0EJ, United Kingdom",51.6029242,-0.26347,Barnet
69,wagamama,"Prince Charles Dr, Hendon, London NW4 3FP, UK",51.5771088,-0.2239497999999999,Barnet
70,Ace Fish Bar,"182 Halfway St, Sidcup DA15 8DJ, UK",51.4410436,0.0871639,Bexley
71,Bear & Ragged Staff,"2 London Rd, Dartford DA1 4BH, UK",51.451807,0.177922,Bexley
72,Big Bites Fast Food,"80 St James Way, Sidcup DA14 5HF, UK",51.42048,0.1322847,Bexley
73,Cafe Mojito,"219 Broadway, Bexleyheath DA6 7EJ, UK",51.457232,0.139654,Bexley
74,Carved,"146 Broadway, Bexleyheath DA6 7DW, UK",51.456951,0.143228,Bexley
75,Chick chicken,"5a Central Ave, Welling DA16 3AX, UK",51.4643844,0.0999516,Bexley
76,Delicio restaurant (Bexleyheath),"157 Broadway, Bexleyheath DA6 7EY, UK",51.4569348,0.1415142,Bexley
77,Favorite Chicken & Ribs,"268 Sherwood Park Ave, Sidcup, Bexley DA15 9JN, UK",51.4475809,0.1181999,Bexley
78,Frankie & Benny's,"28/70 Broadway, Bexleyheath DA6 7LL, UK",51.4561797,0.1499194,Bexley
79,Guans Chinese Restaurant,"255 Westwood Ln, Sidcup DA15 9PS, UK",51.45102259999999,0.103577,Bexley
80,Hippie Chippy Fish Bar,"4 Station Rd, Dartford DA1 3QA, UK",51.4500338,0.1817199,Bexley
81,Ho Wan Chinese Takeaway Bexleyheath,"165 Long Ln, Bexleyheath DA7 5AE, UK",51.465933,0.145725,Bexley
82,Jolly Fenman,"64 to 68 Blackfen Road, Sidcup DA15 8SW, United Kingdom",51.45148830000001,0.0908548,Bexley
83,KFC,"1 Manor Rd, Erith DA8 2AB, UK",51.478831,0.181671,Bexley
84,KFC,"Market Parade, 3 High St, Sidcup DA14 6EP, UK",51.42498399999999,0.1061931,Bexley
85,Kings Fish Restaurant,"2 Station Parade, Sidcup DA15 7DB, UK",51.4333256,0.1030115,Bexley
86,Maxin Chicken Pizza Ribs & Kebab,"13 Crayford High St, Dartford DA1 4HH, UK",51.452166,0.177618,Bexley
87,Metro's fried chicken Erith,"180 West St, Erith DA8 1AN, UK",51.4864785,0.1709673,Bexley
88,New Ruby Belvedere,"88 Lower Rd, Belvedere DA17 6DZ, UK",51.4900613,0.1625162,Bexley
89,Perfect Fried Chicken,"127 Birling Rd, Erith DA8 3HY, UK",51.471819,0.1756122,Bexley
90,Pizza Chicken & Kebab Express,"178 West St, Erith DA8 1AN, UK",51.4864457,0.1710536,Bexley
91,Pizza Hot Land,"1 St John's Rd, Sidcup DA14 6ES, UK",51.424613,0.1065034,Bexley
92,Pom Pom Fish Bar,"7A Alford Rd, Erith DA8 1PP, UK",51.4840875,0.1653037,Bexley
93,Radhuny Express,"13A Pickford Ln, Bexleyheath DA7 4RD, UK",51.4643025,0.1324881,Bexley
94,Sunrise City Chinese Takeaway,"41 Cray Rd, Sidcup DA14 5DE, UK",51.417382,0.1159446,Bexley
95,THE GRILL & FRIED CHICKEN LTD,"Welling DA16 3PB, UK",51.4627688,0.1049468,Bexley
96,Tasty Chicken,"51 Nuxley Rd, Belvedere DA17 5JN, UK",51.4821468,0.1460114,Bexley
97,Tasty Chicken Grill & Pizza,"19 Upper Wickham Ln, Welling DA16 3AA, UK",51.463097,0.108276,Bexley
98,The Sun Chinese Takeaway,"257 Bexley Rd, Erith DA8 3EX, UK",51.473704,0.1627504,Bexley
99,Toby Carvery Bexleyheath,"Crook Log, Bexleyheath DA6 8EQ, UK",51.4591295,0.1264712,Bexley
100,Yacht,"167 Long Ln, Bexleyheath DA7 5AE, UK",51.4662108,0.1448936,Bexley
101,Best Chicken,"240A Ealing Rd, Middlesex HA0 4QL, UK",51.543569,-0.2974252,Brent
102,Boston Peri Peri Chicken,"263 Preston Rd, Harrow HA3 0PS, UK",51.5723576,-0.29481,Brent
103,CHICKEN LAND,"44 Queensbury Station Parade, Edgware HA8 5NN, UK",51.59486589999999,-0.2850568,Brent
104,CHICKEN LAND,"27 Blackbird Hill, London NW9 8RS, UK",51.564833,-0.263048,Brent
105,Carolina Chicken,"43 Burnt Oak Broadway, Edgware HA8 5JZ, UK",51.5998332,-0.2668033,Brent
106,Chicken Cottage Kilburn,"365 Kilburn High Rd, Kilburn, London NW6 7QB, UK",51.54549,-0.2022897,Brent
107,Chicken Cottage Willesden,"24-25 Station Terrace, Kensal Green, London NW10 5RP, UK",51.5335709,-0.2190324,Brent
108,Chicken Delight,"156 Church Rd, Willesden, London NW10 9NH, UK",51.5472342,-0.2500673,Brent
109,Chicken Inn,"105 Cricklewood Broadway, Cricklewood, London NW2 3JG, UK",51.55498249999999,-0.2135203,Brent
110,Chicken Wonder London,"132 High Rd, Willesden, London NW10 2PJ, UK",51.5473644,-0.2329757,Brent
111,Chicken World Wembley,"145 Wembley Park Dr, Wembley HA9 8HQ, UK",51.56222710000001,-0.2810773,Brent
112,Chicken land,"209 East Ln, Wembley HA0 3NG, UK",51.5624575,-0.3057204,Brent
113,Chiqo,"224A Preston Rd, Wembley HA9 8PB, UK",51.5712579,-0.2945604,Brent
114,Fancy Chicken 'N' Pizza,"228, 226 Preston Rd, Wembley HA9 8PB, UK",51.57131099999999,-0.294591,Brent
115,Favorite Chicken & Ribs,"73 Kilburn High Rd, Kilburn, London NW6 6HY, UK",51.5375155,-0.1932427,Brent
116,Janchi Korean Kitchen,"Unit C (First Floor, 399 Edgware Rd, London NW9 0FH, United Kingdom",51.5931986,-0.2598967,Brent
117,KFC,"434 High Rd, Wembley HA9 6AH, UK",51.553804,-0.291906,Brent
118,KFC,"161 Kilburn High Rd, Kilburn, London NW6 7HY, UK",51.5409741,-0.1970994,Brent
119,Manhattan Chicken & Pizza,"Manhattan Chicken & Pizza, 2 Neeld Cres, Wembley HA9 6QU, UK",51.5518539,-0.2833466,Brent
120,Nando's,"Empire Way, Wembley HA9 0PA, UK",51.5567151,-0.2836907,Brent
121,Nanny Bill's @ Boxpark Wembley,"Unit 6, Box Park Wembley, 18 Olympic Way, London HA9 0JT, United Kingdom",51.5605486,-0.2799151,Brent
122,New Jersey Chicken,"203 Edgware Rd, London NW9 6LP, UK",51.5873988,-0.2517233,Brent
123,New Royal Fried Chicken & Ribs,"443 High Rd, Wembley HA9 7AF, UK",51.55293289999999,-0.2953157,Brent
124,PST PERFECT CHICKEN (Wembley),"317 Harrow Rd, Wembley HA9 6BA, UK",51.5530073,-0.2858291,Brent
125,Pepe's Piri Piri,"413-415 High Rd, Wembley HA9 7AB, UK",51.553411,-0.2939818,Brent
126,Pepe's Piri Piri Kingsbury,"654 Kingsbury Road, Kingsbury Circle, London NW9 9HN, UK",51.5849906,-0.2806736,Brent
127,Peri Peri Chicken House,"45 Kilburn High Rd, North Maida Vale, London NW6 5SB, UK",51.536371,-0.1918135,Brent
128,Quality Fried Chicken,"Neasden, London NW10 0AA, United Kingdom",51.5593111,-0.2494734,Brent
129,Rio's Peri Peri Wembley,"16 Forty Ave, Wembley HA9 9JS, UK",51.5657173,-0.2785695,Brent
130,Rocky's,"Stonebridge, London NW10 8LY, United Kingdom",51.54101980000001,-0.2612156,Brent
131,Royal Chicken,"20 Harrow Rd, Wembley HA9 6PG, UK",51.54569249999999,-0.2730016000000001,Brent
132,Royal Fried Chicken,"Harrow Rd, Wembley HA0 3EL, UK",51.5529241,-0.2953659,Brent
133,Royal chicken n pizza,"441 Kenton Rd, Harrow HA3 0XY, UK",51.5866376,-0.2983772,Brent
134,Sam's Chicken,"84 High St, Harlesden, London NW10 4SJ, UK",51.5358698,-0.2461208,Brent
135,Sam's Chicken Kingsbury,"642 Kingsbury Road, Kingsbury Circle, London NW9 9HN, UK",51.5850109,-0.2801515,Brent
136,Sam's Chicken Willesden Green,"47 High Rd, Willesden, London NW10 2TE, UK",51.5473752,-0.2267215,Brent
137,Sams Chicken,"177 Edgware Rd, London NW9 6LP, UK",51.5868681,-0.2511721,Brent
138,Selekt Chicken London,"201 Cricklewood Broadway, Cricklewood, London NW2 3HS, UK",51.5573167,-0.2164097,Brent
139,Selekt Chicken Wembley,"Ealing Rd, Wembley HA0 4LL, UK",51.5418506,-0.2979334,Brent
140,Southern Fried Chicken,"65 Salusbury Rd, Kilburn, London NW6 6NJ, UK",51.535075,-0.204742,Brent
141,Vinushnth Tasty Chicken,"25A Bridge Rd, Wembley HA9 9AB, UK",51.56432940000001,-0.2780098,Brent
142,Walli's Chicken,"798A Harrow Rd, Wembley HA0 3EL, UK",51.5550618,-0.31541,Brent
143,Zam's Chicken & Pizza,"Willesden, London NW10 1BD, United Kingdom",51.5503781,-0.2405565,Brent
144,Zams Chicken & Pizza,"207-209 Edgware Rd, London NW9 6LP, UK",51.5875026,-0.2518386,Brent
145,Zams Chicken & Pizza,"281 High Rd, Willesden, London NW10 2JY, UK",51.5481689,-0.2378161,Brent
146,chicken village,"5 Kilburn Ln, Kensal Green, London W10 4AE, UK",51.5284096,-0.2161375,Brent
147,ASK Italian,"3 East St, Bromley BR1 1AA, UK",51.4060901,0.0152405,Bromley
148,Barrel & Horn,"204-206 High St, Bromley BR1 1PW, UK",51.405887,0.0137012,Bromley
149,Cafe Medi restaurant,"332 High St, Orpington BR6 0NQ, UK",51.3737647,0.0976382,Bromley
150,Café Rouge,"12-13, Market Square, Bromley BR1 1NA, UK",51.4058283,0.015565,Bromley
151,Chai Naasto - Beckenham,"2-4 Fairfield Rd, Beckenham BR3 3LD, UK",51.407165,-0.027123,Bromley
152,Crispy Cod,"114-116 High St, Orpington BR6 0JT, UK",51.379056,0.101993,Bromley
153,Crystal Lake,"109 High St, Orpington BR6 0LG, UK",51.3786341,0.1018987,Bromley
154,Dee's Kitchen,"163 Masons Hill, Bromley BR2 9HW, UK",51.3957238,0.025614,Bromley
155,Econo Pizza,"51 Mottingham Rd, Mottingham, London SE9 4QZ, UK",51.4369708,0.0442786,Bromley
156,Favorite Chicken & Ribs,"68 Kimmeridge Rd, London SE9 4EB, UK",51.4269553,0.0464692,Bromley
157,Favorite Chicken & Ribs,"114 High St, London SE20 7EZ, UK",51.4153878,-0.0534003,Bromley
158,Favorite Chicken & Ribs,"286 High St, Beckenham BR3 1DY, UK",51.4068805,-0.031233,Bromley
159,Frankie & Benny's,"Unit 2A, Farnborough Way, Orpington BR6 7DH, United Kingdom",51.36179,0.072911,Bromley
160,Fu Do Chinese Take Away,"79 Beckenham Ln, Bromley BR2 0DN, UK",51.4063075,0.0037096,Bromley
161,Island Fish & Chips,"363 Chipperfield Rd, Orpington BR5 2LJ, UK",51.3954853,0.1074768,Bromley
162,KFC,"73-75 High St, Bromley BR1 1JY, UK",51.4022152,0.0160116,Bromley
163,KFC,"172 High St, Orpington BR6 0JW, UK",51.3777749,0.1005321,Bromley
164,KFC,"206 High St, West Wickham BR4 0LZ, UK",51.37776179999999,-0.0252896,Bromley
165,Miami Fried Chicken Anerley,"67 Anerley Rd, London SE19 2AS, UK",51.4158784,-0.07199849999999999,Bromley
166,Miso Noodle Bar,"132 High St, Beckenham BR3 1EB, UK",51.4077163,-0.0266549,Bromley
167,Miso Noodle Bar,"10 East St, Bromley BR1 1QX, UK",51.40656490000001,0.0158423,Bromley
168,Miso Noodle Bar,"268-270 High St, Orpington BR6 0NB, UK",51.3753768,0.0988346,Bromley
169,Morley's Beckenham,"165-167 Beckenham Rd, Beckenham BR3 4PT, UK",51.4088281,-0.0409383,Bromley
170,Morley's Fried Chicken,"3 High St, London SE20 7HJ, UK",51.41327930000001,-0.051469,Bromley
171,Morley's Orpington,"24 Carlton Parade, Orpington BR6 0JB, UK",51.3821301,0.1068777,Bromley
172,Ollies kebab and pizza,"115 High St, Orpington BR6 7AZ, UK",51.359628,0.0721078,Bromley
173,Orpington Express,"261 High St, Orpington BR6 0NW, UK",51.3749711,0.0989578,Bromley
174,Parkside Restaurant,"5 Chislehurst Rd, Orpington BR6 0DF, UK",51.38009599999999,0.102999,Bromley
175,Pato Lounge,"202-206 High St, Orpington BR6 0JN, UK",51.3770514,0.09989859999999999,Bromley
176,Quality Fishin Chips&kebab,"344 High St, Orpington BR6 0NQ, UK",51.373499,0.097469,Bromley
177,Sakura Sushi Bromley,"20 Addington Rd, West Wickham BR4 9BS, UK",51.3739139,0.0014091,Bromley
178,Seven Stars,"30 London Rd, Bromley BR1 3QR, UK",51.4094,0.0107503,Bromley
179,Swan and Mitre,"260-262 High St, Bromley BR1 1PG, UK",51.4071209,0.0116277,Bromley
180,The Crooked Billet,"286 Southborough Ln, Bromley BR2 8AA, UK",51.3902559,0.05407389999999999,Bromley
181,The Rib Shack Grill & Bar,"5 Station Square, Orpington BR5 1LY, UK",51.3899536,0.0753481,Bromley
182,Toby Carvery Crown,"155 Bromley Common, Bromley BR2 9RJ, UK",51.3892412,0.0357785,Bromley
183,Toby Carvery Eden Park,"422 Upper Elmers End Rd, Beckenham BR3 3HQ, UK",51.38992750000001,-0.027211,Bromley
184,Tom Bell Bromley,"187 Widmore Rd, Bromley BR1 2RG, UK",51.4056268,0.0351111,Bromley
185,Tom Bell Fish & Chips,"409 Crofton Rd, Orpington BR6 8NL, UK",51.3669154,0.0547228,Bromley
186,Top Fryer,"75 Burnt Ash Ln, Bromley BR1 5AA, UK",51.4200926,0.0191229,Bromley
187,Welcome,"24 Kent Rd, Orpington BR5 4AD, UK",51.3864603,0.1119004,Bromley
188,Yo Sushi,"97, The Glades Shopping Centre, High St, Bromley BR1 1DN, United Kingdom",51.4036931,0.0168691,Bromley
189,Bintang,"93 Kentish Town Rd, London NW1 8NY, UK",51.5435363,-0.1418981,Camden
190,Bird,"21-22 Chalk Farm Rd, Camden Town, London NW1 8BF, UK",51.5423705,-0.1466665,Camden
191,Chick 'n' Sours,"1A Earlham St, London WC2H 9LL, UK",51.5136214,-0.1282076,Camden
192,Chicken Cottage,"239 Finchley Rd, London NW3 6LS, UK",51.547538,-0.1804088,Camden
193,Chicken Cottage Holborn,"130 High Holborn, Holborn, London WC1V 6PS, UK",51.5174966,-0.121865,Camden
194,Chicken Shop Holborn,"199-206 High Holborn, Holborn, London WC1V 7BD, UK",51.5171546,-0.1222014,Camden
195,KFC,"71 Tottenham Court Rd, Bloomsbury, London W1T 2HD, UK",51.5204368,-0.1344817,Camden
196,King Rooster,"127 King's Cross Rd, Kings Cross, London WC1X 9BJ, UK",51.52946799999999,-0.116019,Camden
197,Los Pollos,"159A Kentish Town Rd, Kentish Town, London NW1 8PD, UK",51.54555,-0.141839,Camden
198,Lucky Fried Chicken,"The Grafton Arms, 20 Prince of Wales Rd, Kentish Town, London NW5 3LG, UK",51.5467769,-0.1444556,Camden
199,Lulu Crispy Chicken,"Camden Town, London NW1 8AH, UK",51.54227299999999,-0.1474715,Camden
200,Pizza & Chicken Zone,"171 Kentish Town Rd, Kentish Town, London NW1 8PD, UK",51.54598799999999,-0.141951,Camden
201,Simply Chicken,"129 Drummond St, London NW1 2HL, UK",51.5269895,-0.1367517,Camden
202,Supreme Fried Chicken & Kebabs,"292 Grays Inn Rd, Kings Cross, London WC1X 8EB, UK",51.52768,-0.1184807,Camden
203,Sushi Salsa - Camden,"3A, Camden Wharf, 28 Jamestown Rd, Camden Town, London NW1 7BY, UK",51.5407945,-0.1454212,Camden
204,Tennessee Fried Chicken,"304 Kilburn High Rd, Kilburn, London NW6 2DB, UK",51.5443594,-0.2006226,Camden
205,"The Flask, Hampstead","14 Flask Walk, London NW3 1HE, UK",51.5565821,-0.1773395,Camden
206,Wagamama,"255 Finchley Rd, London NW3 6LU, UK",51.5478039,-0.1807577,Camden
207,WingWing Krispy Chicken,"30 Woburn Pl, Bloomsbury, London WC1H 0JR, UK",51.52448589999999,-0.127927,Camden
208,Yaki Box,"8AH, Camden Lock Pl, London, United Kingdom",51.54169150000001,-0.1463287,Camden
209,On The Bab St Paul's,"9 Ludgate Broadway, London EC4V 6DU, UK",51.513476,-0.1025211,City of London
210,Arizona Fried Chicken,"165 Portland Rd, South Norwood, London SE25 4UY, UK",51.395405,-0.0676663,Croydon
211,Charlies Fried Chicken,"344 Limpsfield Rd, South Croydon CR2 9BX, UK",51.3195484,-0.0649447,Croydon
212,Chicken Cottage Crystal Palace,"78 Westow Hill, Upper Norwood, London SE19 1SB, UK",51.41968749999999,-0.0795282,Croydon
213,Chicken Cottage Norbury,"1426 London Rd, Norbury, London SW16 4BZ, UK",51.4104959,-0.1224908,Croydon
214,Chicken Cottage Thornton Heath,"92A Brigstock Rd, Thornton Heath CR7 7JA, UK",51.3979497,-0.1020061,Croydon
215,Chicken Express South Norwood,"165 Portland Rd, South Norwood, London SE25 4UY, UK",51.3954141,-0.0676978,Croydon
216,Chicken Hut Mitcham Road,"387 Mitcham Rd, Croydon CR0 3HP, UK",51.3860737,-0.1229155,Croydon
217,Chicken Hut Waddon,"43 Waddon Rd, Croydon CR0 4LH, UK",51.3717556,-0.1094355,Croydon
218,Chicken Maxx,"1058 London Rd, Thornton Heath CR7 7ND, UK",51.4011946,-0.1180391,Croydon
219,Chicken World Broad Green,"263 London Rd, Croydon CR0 2RL, UK",51.3838485,-0.1086142,Croydon
220,Chicken World Croydon Church Street,"65 Church St, Croydon CR0 1RH, UK",51.3733189,-0.1034816,Croydon
221,Coqfighter Croydon,"Unit 19 Boxpark, 99 George St, Croydon CR0 1LD, United Kingdom",51.37500199999999,-0.093645,Croydon
222,Corners Chicken & Ribs,"10 Green Ln, Thornton Heath CR7 8BA, UK",51.4081357,-0.1054568,Croydon
223,Crepes & Cones,"24-26 S End, Croydon CR0 1DN, UK",51.3664988,-0.0991823,Croydon
224,Croydon Morleys Fried Chicken,"304 Whitehorse Rd, Croydon CR0 2LE, UK",51.3928411,-0.0936902,Croydon
225,Elroys Chicken & Pizza,"47 Whitehorse Rd, Croydon CR0 2JG, UK",51.3847927,-0.0976146,Croydon
226,Everyday's Croydon North End,"136 N End, Croydon CR0 1UE, UK",51.3778534,-0.1023647,Croydon
227,Famous Chicken & Ribs Mitcham Road,"230 Mitcham Rd, Croydon CR0 3JJ, UK",51.382502,-0.115244,Croydon
228,Favorite Chicken & Ribs,"67A High St, South Norwood, London SE25 6EB, UK",51.3991911,-0.07481159999999999,Croydon
229,Favorite Chicken & Ribs,"126 Brighton Rd, Coulsdon CR5 2ND, UK",51.3215043,-0.1376568,Croydon
230,Favorite Chicken & Ribs - Addiscombe,"319 Lower Addiscombe Rd, Croydon CR0 6RF, UK",51.38210369999999,-0.06961869999999999,Croydon
231,Favorite Chicken & Ribs New Addington,"28 Central Parade, New Addington, Croydon CR0 0JB, UK",51.3417642,-0.0149793,Croydon
232,Favorite Chicken Selsdon,"176 Addington Rd, South Croydon CR2 8LB, UK",51.3438019,-0.0617176,Croydon
233,Favourite Chicken Addiscombe,"317A Lower Addiscombe Rd, Croydon CR0 6RF, UK",51.3820391,-0.06962689999999999,Croydon
234,Flame & Fried,"64 Church St, Croydon CR0 1RB, UK",51.37354699999999,-0.103533,Croydon
235,G1 New Morley's,"26A High St, South Norwood, London SE25 6HA, UK",51.3998715,-0.0743192,Croydon
236,Galitos Piri Piri Croydon,"10 S End, Croydon CR0 1DL, UK",51.3670378,-0.0992015,Croydon
237,J Star Fried Chicken,"141 Milne Park E, New Addington, Croydon CR0 0BF, UK",51.3357137,-0.004177699999999999,Croydon
238,JFC,"Croydon CR0 1FG, United Kingdom",51.3734425,-0.1019714,Croydon
239,KFC,"746A London Rd, Thornton Heath CR7 6JA, UK",51.39352350000001,-0.11391,Croydon
240,KFC,"253 Lower Addiscombe Rd, Croydon CR0 6RD, UK",51.3807148,-0.0721666,Croydon
241,KFC,"168 Addington Rd, South Croydon CR2 8LB, UK",51.3437181,-0.0619531,Croydon
242,KFC,"Purley Parade, 11 High St, Purley CR8 2AB, UK",51.3397347,-0.1143304,Croydon
243,KPS,"11 Broom Rd, Croydon CR0 8NG, UK",51.3697307,-0.0303456,Croydon
244,Metros Fried Chicken,"35 Portland Rd, South Norwood, London SE25 4UF, UK",51.3981633,-0.0721832,Croydon
245,Miami Fried Chicken - Croydon,"130 Cherry Orchard Rd, Croydon CR0 6BB, UK",51.37952139999999,-0.0879298,Croydon
246,Morley's Brighton Road,"136 Brighton Rd, South Croydon CR2 6AE, UK",51.3560521,-0.0975858,Croydon
247,Morley's Fried Chicken,"68A Westow Hill, Upper Norwood, London SE19 1RX, UK",51.4196044,-0.0799201,Croydon
248,Morley's Fried Chicken,"9 High St, South Norwood, London SE25 6EP, UK",51.3986715,-0.0760503,Croydon
249,Morley's Fried Chicken Shop,"243A London Rd, Croydon CR0 2RL, UK",51.38341459999999,-0.1081112,Croydon
250,Morley's Mitcham Road,"Sutherland Rd, Croydon CR0 3JJ, UK",51.3823452,-0.1149557,Croydon
251,Morley's Norbury,"1549 London Rd, Norbury, London SW16 4BT, UK",51.4122339,-0.1239368,Croydon
252,Morley's Selhurst,"55A Whitehorse Rd, Croydon CR0 2JG, UK",51.384929,-0.09765109999999999,Croydon
253,Morley's Thornton Heath,"58 Beulah Rd, Thornton Heath CR7 8JF, UK",51.4032095,-0.1006226,Croydon
254,Morleys Croydon South End,"87 S End, Croydon CR0 1BG, UK",51.3647624,-0.0988004,Croydon
255,Morleys Croydon Southbridge Road,"72 Southbridge Rd, Croydon CR0 1AE, UK",51.36698500000001,-0.101857,Croydon
256,Morleys Fried Chicken,"6 Central Parade, New Addington, Croydon CR0 0JB, UK",51.3424525,-0.0163417,Croydon
257,Morleys South Norwood,"277 Portland Rd, South Norwood, London SE25 4QQ, UK",51.3923046,-0.06622109999999999,Croydon
258,New Morley's Bensham Lane,"128 Bensham Ln, Thornton Heath CR7 7ES, UK",51.3896612,-0.1061922,Croydon
259,New Morley's Thornton Heath,"914A London Rd, Thornton Heath CR7 7PE, UK",51.3972463,-0.1154751,Croydon
260,New Morley's Woodside,"285 Morland Rd, Croydon CR0 6NF, UK",51.3849554,-0.0750646,Croydon
261,Perfect Fried,"33 Portland Rd, South Norwood, London SE25 4UF, UK",51.3981271,-0.0722482,Croydon
262,Perfect Fried Chicken,"424A Whitehorse Rd, Thornton Heath CR7 8SB, UK",51.39696989999999,-0.0924658,Croydon
263,Perfect Fried Chicken,"43 Woodside Green, London SE25 5HQ, UK",51.38688879999999,-0.07061719999999999,Croydon
264,Perfect Fried Chicken,"95a S End, Croydon CR0 1BG, UK",51.364543,-0.0987224,Croydon
265,Peri Peri Chicken Bites London,"3 Brigstock Rd, Thornton Heath CR7 7JG, UK",51.3983202,-0.1001702,Croydon
266,Roosters Piri Piri,"Norfolk House, 13 Wellesley Rd, Croydon CR0 1LH, UK",51.3747639,-0.0965877,Croydon
267,Roosters Spot,"926 Brighton Rd, Purley CR8 2LN, UK",51.339484,-0.1157861,Croydon
268,Sam's Chicken Croydon,"48 High St, Croydon CR0 1YB, UK",51.3721918,-0.1005812,Croydon
269,Spicy Chicken,"Fine Foods, 309-311 London Rd, Croydon CR0 3PA, UK",51.3849366,-0.1095578,Croydon
270,Tasty Chicken,"238 London Rd, Croydon CR0 2TF, UK",51.3824839,-0.106597,Croydon
271,Tasty Fried Chicken,"54 Canterbury Rd, Croydon CR0 3PW, UK",51.3861395,-0.1144196,Croydon
272,The Cricketers Harvester,"36 Addington Village Rd, Croydon CR0 5AQ, UK",51.3577939,-0.0329727,Croydon
273,Toby Carvery South Croydon,"415 Brighton Rd, South Croydon CR2 6ES, UK",51.349545,-0.1001292,Croydon
274,UK Tasty Chicken,"217 Whitehorse Ln, South Norwood, London SE25 6RB, UK",51.3999734,-0.08576009999999999,Croydon
275,Windmill Fried Chicken,"Croydon CR0 2XS, United Kingdom",51.3860156,-0.0994404,Croydon
276,Zenith Fried Chicken,"47 Lower Addiscombe Rd, Croydon CR0 6PQ, UK",51.3805541,-0.0873902,Croydon
277,Al-Haad,"147 The Broadway, Southall UB1 1LP, UK",51.51188670000001,-0.3826503,Ealing
278,Bebes Chicken,"Middlesex Cl, Greenford, Southall UB1 1NN, UK",51.5265215,-0.36484,Ealing
279,Bollo's Peri Peri - Acton,"No8 Central Parade Gunnersbury Lane, (Acton Town Tube Station), Acton W3 8HL, United Kingdom",51.5032897,-0.279763,Ealing
280,Chicken Cottage,"328 Ruislip Rd E, Greenford UB6 9BH, UK",51.52757399999999,-0.3518991,Ealing
281,Chicken Cottage Northolt,"46 Church Rd, Northolt UB5 5AB, UK",51.5446666,-0.373744,Ealing
282,Chicken Cottage Southall,"64 South Rd, Southall UB1 1RQ, UK",51.5092542,-0.3771898,Ealing
283,Chicken Land Peri Peri,"95A Greenford Ave, Hanwell, London W7 1HA, UK",51.5154004,-0.3372905,Ealing
284,Chicking,"169 High St, Acton, London W3 6LP, UK",51.5070857,-0.2709977,Ealing
285,Dixie Chicken,"6 King St, Southall UB2 4DA, UK",51.5019736,-0.3824657,Ealing
286,Flame Piri - Piri,"2 Broadway, West Ealing, London W13 0SR, UK",51.5109763,-0.3195849,Ealing
287,Galaxy,"Mandeville Rd, Northolt UB5 5BJ, UK",51.54497689999999,-0.3729863,Ealing
288,Honest Burgers - Ealing,"53 New Broadway, Ealing, London W5 5AH, UK",51.5126996,-0.3071672,Ealing
289,KFC,"Alperton Ln, Greenford UB6 8AA, UK",51.5321541,-0.3088746,Ealing
290,KFC,"Royale Leisure Park, Kendal Ave, Park Royal, London W3 0PA, UK",51.5252956,-0.2813025,Ealing
291,King's Piri Piri Harrow,"143 Greenford Rd, Greenford HA1 3QN, UK",51.5253641,-0.353318,Ealing
292,Kings chicken & pizza,"7 Higham Mews, Northolt UB5 6FP, UK",51.5292244,-0.3779893,Ealing
293,Martha's Cottage Fried Chicken Burgers Wings,"Southall UB2 5JW, United Kingdom",51.4984562,-0.3930719,Ealing
294,Park's Kitchen,"24 The Green, Ealing, London W5 5DA, UK",51.51060769999999,-0.30539,Ealing
295,Pepe's Peri Peri Greenford,"468 Greenford Rd, Greenford UB6 8SQ, UK",51.52829879999999,-0.3517423,Ealing
296,Pepe's Piri Piri,"59 The Mall, Ealing, London W5 3TA, UK",51.5139723,-0.3004325,Ealing
297,Pepe's Piri Piri Southall,"168 The Broadway, Southall UB1 1NN, UK",51.5123761,-0.3837652,Ealing
298,Railway Hotel,"390 Oldfield Ln N, Greenford UB6 0AP, UK",51.5431512,-0.345057,Ealing
299,Rockys Southall,"81 Norwood Rd, Southall UB2 4DZ, UK",51.4987527,-0.3788795,Ealing
300,Roosters Piri Piri,"7 South Rd, Southall UB1 1SU, UK",51.5107947,-0.3755065,Ealing
301,SHADWELL FRIED CHICKEN,"71 Shadwell Dr, Northolt UB5 6DE, UK",51.5345907,-0.3753544,Ealing
302,Sam's Chicken,"19-21 Broadway, Ealing, London W13 9DA, UK",51.5102889,-0.3226494,Ealing
303,Sam's Chicken,"20 South Rd, Southall UB1 1RT, UK",51.5103539,-0.3762754,Ealing
304,Sam's Chicken Greenford,"15 The Broadway, Greenford UB6 9PH, UK",51.5276834,-0.3537054,Ealing
305,Sam's South Ealing London,"143 S Ealing Rd, Ealing, London W5 4QP, UK",51.4988055,-0.3057843,Ealing
306,Soane's Kitchen,"Walpole Park Ealing Green, Mattock Ln, London W5 5EQ, United Kingdom",51.5105671,-0.3065761,Ealing
307,South Ealing Piri Piri,"172 S Ealing Rd, Ealing, London W5 4QL, UK",51.4977442,-0.3058882,Ealing
308,Southern Fried Chicken,"47 The Broadway, Greenford UB6 9PN, UK",51.52817410000001,-0.3552918,Ealing
309,Steakout Southall,"175 The Broadway, Southall UB1 1LX, UK",51.5122166,-0.3843456,Ealing
310,Sun Wah,"272 Church Rd, Northolt UB5 5AW, UK",51.5425315,-0.3793753,Ealing
311,Sushi Bar Atariya Ealing Common,"Station Parade, Uxbridge Rd, Ealing Common, London W5 3LD, UK",51.5104611,-0.2880113,Ealing
312,Tennesee Land Chicken,"60A Bilton Rd, Perivale, Greenford UB6 7DH, UK",51.539647,-0.3099963,Ealing
313,The Crown,"Ealing Rd, Northolt UB5 6AA, UK",51.5446784,-0.3705912,Ealing
314,The Sir Michael Balcon,"46-47 The Mall, Ealing, London W5 3TJ, UK",51.513603,-0.298768,Ealing
315,Western Fried Chicken,"325 Greenford Ave, London W7 1JH, UK",51.5225924,-0.3401223,Ealing
316,Western Fried Chicken,"7dd, 57 Old Oak Common Ln, East Acton, London W3 7NT, UK",51.5143585,-0.2493768,Ealing
317,4street Chicken Ltd,"134 Fore St, Edmonton, London N18 2XA, UK",51.6127452,-0.06442769999999999,Enfield
318,Amma's Peri Peri Kitchen,"232 High St, Enfield EN3 4EZ, UK",51.6460854,-0.0470495,Enfield
319,BOOM BOOM Chicken,"300 Green Lanes, Palmers Green, London N13 5TP, UK",51.6188756,-0.1073021,Enfield
320,Chaseside Takeaway,"98 Lancaster Rd, Enfield EN2 0BX, UK",51.66396899999999,-0.081282,Enfield
321,Chicken Express,"159 Fore St, Edmonton, London N18 2XB, UK",51.6135957,-0.0647908,Enfield
322,County Fried Chicken & Burgers,"227 Hertford Rd, Edmonton, London N9 7ER, UK",51.6321855,-0.0548983,Enfield
323,Dixy,"556 Hertford Rd, London N9 8AG, UK",51.6387486,-0.0481128,Enfield
324,Dixy Fried Chickens Euro,"185 Town Rd, Edmonton, London N9 0HL, UK",51.6238409,-0.04875770000000001,Enfield
325,Favorite Chicken & Ribs,"120 Lancaster Rd, Enfield EN2 0JW, UK",51.6638341,-0.0822729,Enfield
326,Favorite Chicken & Ribs,"180 Hertford Rd, Enfield EN3 5AZ, UK",51.6569324,-0.0475476,Enfield
327,Favorite Chicken & Ribs,"Keats Parade, 7d, Church St, London N9 9DP, United Kingdom",51.625335,-0.06213,Enfield
328,Fes Fried Chicken LTD,"49 Bounces Rd, Edmonton, London N9 8JD, UK",51.6285454,-0.0531661,Enfield
329,Just Chicken & Kebabs,"42 Green Lanes, London N13 6JU, UK",51.611233,-0.1092575,Enfield
330,KFC,"Enfield Retail Park, Great Cambridge Rd, Enfield EN1 3FB, UK",51.65119199999999,-0.0595248,Enfield
331,KFC,"47a Chase Side, Osidge, London N14 5BP, UK",51.6330023,-0.1302508,Enfield
332,KFC,"297 Green Lanes, Palmers Green, London N13 4XS, UK",51.6173993,-0.1093218,Enfield
333,KFC,"156-158 Fore St, Edmonton, London N18 2XA, UK",51.6131655,-0.0644874,Enfield
334,Kandy Fried Chicken & Pizza,"59 Green Lanes, London N13 4TD, UK",51.6100246,-0.1100225,Enfield
335,King Fried Chicken,"245 Green St, Enfield EN3 7SJ, UK",51.6550836,-0.0317627,Enfield
336,Let's Eat Kebab And Fried Chicken,"290 Durants Rd, Enfield EN3 7AZ, UK",51.64765509999999,-0.0346901,Enfield
337,Mighty Chicken & Pizzas,"121 Hertford Rd, Enfield EN3 5JF, UK",51.6565622,-0.0472046,Enfield
338,Morley's Fried Chicken - Enfield,"48a Church St, Enfield EN2 6AZ, UK",51.6521594,-0.084935,Enfield
339,MyChippy.com Fish & Chips Enfield London,"55 Main Ave, Enfield EN1 1DS, UK",51.64493,-0.063925,Enfield
340,PFC,"238 High St, Enfield EN3 4EZ, UK",51.6462415,-0.0471299,Enfield
341,Poppin Chicken,"Edmonton, London N18 2TZ, United Kingdom",51.61581839999999,-0.0643282,Enfield
342,Rangers Chicken Express,"877 Green Lanes, Winchmore Hill, London N21 2QS, UK",51.6348746,-0.0941278,Enfield
343,Royal Chicken 'n' Pizza,"10 The Broadway, London N14 6PH, UK",51.6326328,-0.1270207,Enfield
344,Sam's Chicken,"238 High St, Enfield EN3 4EZ, UK",51.6462261,-0.0470801,Enfield
345,Tasty Chicken & Pizza,"585 Hertford Rd, Enfield EN3 5UL, UK",51.670507,-0.040638,Enfield
346,Tennessee Express,"160 Ordnance Rd, Enfield EN3 6DL, UK",51.6712891,-0.0295921,Enfield
347,Tennessee Fried Chicken,"590 Hertford Rd, Enfield EN3 5SX, UK",51.6694044,-0.0413896,Enfield
348,Texas Fried Chicken,"1 Bridge Rd, Edmonton, London N9 0NN, UK",51.6232118,-0.06138470000000001,Enfield
349,The Navigation,"4 Wharf Rd, Enfield EN3 4XX, UK",51.643562,-0.0295428,Enfield
350,Toby Carvery Whitewebbs House,"Whitewebbs Ln, Enfield EN2 9HH, UK",51.6783607,-0.079627,Enfield
351,Twins Fish Bar,"144 Percival Rd, Enfield EN1 1QU, UK",51.64705530000001,-0.0650457,Enfield
352,Veri Peri,"133 High St, Enfield EN3 4EB, UK",51.6441773,-0.0463049,Enfield
353,Delicious Fried Chicken,"2A Brewery Rd, Plumstead, London SE18 7PT, UK",51.485966,0.0806751,Greenwich
354,Euro Chicken,"11 Plumstead Rd, Woolwich, London SE18 7BZ, UK",51.49095870000001,0.0712401,Greenwich
355,Favorite Chicken & Ribs,"13 Blackheath Hill, Greenwich, London SE10 8PB, UK",51.4730419,-0.0145766,Greenwich
356,Finest Chicken Peri Peri Grill,"41 Herbert Rd, Woolwich, London SE18 3SZ, UK",51.4857266,0.0695853,Greenwich
357,Frying Pan II,"1 Brewery Rd, Plumstead, London SE18 7PS, UK",51.486218,0.0799771,Greenwich
358,Griller Plumstead,"14 Conway Rd, Plumstead, London SE18 1AH, UK",51.487143,0.08577,Greenwich
359,KFC,"19 Thomas St, Woolwich, London SE18 6HU, UK",51.4904246,0.0662686,Greenwich
360,KFC,"138-140, Eltham High St, Eltham, London SE9 1BJ, UK",51.4505305,0.05527220000000001,Greenwich
361,Morley's Fried Chicken Woolwich,"23 Frances St, Woolwich, London SE18 5EF, UK",51.4879851,0.0555925,Greenwich
362,Morley's Plumstead,"10 Plumstead High St, Plumstead, London SE18 1SN, UK",51.4893053,0.08597049999999999,Greenwich
363,Morleys Fried Chicken,"117 Woolwich Rd, Greenwich Peninsula, London SE10 0RF, UK",51.4862402,0.012766,Greenwich
364,Morleys Plumstead High Street,"10 Plumstead High St, Plumstead, London SE18 1SN, UK",51.48930499999999,0.08597099999999999,Greenwich
365,Morleys fried chicken,"741 Sidcup Rd, London SE9 3SA, UK",51.43463690000001,0.0647727,Greenwich
366,New Royal China Chinese Take Away,"50 Plumstead High St, Plumstead, London SE18 1SL, UK",51.4887474,0.0882662,Greenwich
367,Perfect Fried Chicken,"44 Eltham High St, Eltham, London SE9 1BT, UK",51.4510091,0.0505735,Greenwich
368,Sam's Chicken,"9 Plumstead Rd, Woolwich, London SE18 7BZ, UK",51.490976,0.07104869999999999,Greenwich
369,Station Kebab House,"16 Vincent Rd, Woolwich, London SE18 6RF, UK",51.489497,0.069572,Greenwich
370,Super Fry Fish Bar,"360 Footscray Rd, London SE9 2AA, UK",51.43861589999999,0.0708207,Greenwich
371,Tasty Chicken,"24 Conway Rd, Plumstead, London SE18 1AH, UK",51.4870749,0.0861403,Greenwich
372,Thunderbird Fried Chicken,"The O2, Peninsula Square, London SE10 0DX, United Kingdom",51.5037864,0.0043757,Greenwich
373,Zenith Fried Chicken,"23 Herbert Rd, Plumstead, London SE18 3TB, UK",51.4806853,0.0697778,Greenwich
374,Bake Street,"58 Evering Rd, Hackney Downs, London N16 7SR, UK",51.5587643,-0.06668009999999999,Hackney
375,Bird - Shoreditch,"42-44 Kingsland Rd, London E2 8DA, UK",51.5281631,-0.0778258,Hackney
376,Butchies Shoreditch,"22 Rivington St, Hackney, London EC2A 3DY, UK",51.5260068,-0.08223749999999999,Hackney
377,Chick 'n' Sours,"390 Kingsland Rd, Dalston, London E8 4AA, UK",51.5412465,-0.0760573,Hackney
378,Chicken Cottage,"125 City Rd, Old Street, London EC1V 1JB, UK",51.5264112,-0.0877389,Hackney
379,Chicken Klub,"7UN, 235 Amhurst Rd, Hackney Downs, London N16 7RW, UK",51.5545739,-0.06852409999999999,Hackney
380,Coqfighter Shoreditch,"Unit 42-43 Boxpark, 10 Bethnal Green Rd, London E1 6GY, United Kingdom",51.5234799,-0.0765729,Hackney
381,Dixy Chicken,"256 Stamford Hill, London N16 6TU, UK",51.5744335,-0.0720606,Hackney
382,Dixy Chicken,"67 Amhurst Rd, London E8 1LL, UK",51.54924099999999,-0.059475,Hackney
383,Dixy Fried Chicken,"8 Kingsland High St, Dalston, London E8 2JP, UK",51.54647869999999,-0.0754005,Hackney
384,Favorite Chicken & Ribs,"292 Stamford Hill, London N16 6TZ, UK",51.57555060000001,-0.07215830000000001,Hackney
385,Hackney Fried Chicken,"10 Kingsmead Way, Clapton, London E9 5QG, UK",51.5519204,-0.0348148,Hackney
386,Kennedy Fried Chicken,"99 Stoke Newington Rd, Stoke Newington, London N16 8BX, UK",51.5544878,-0.0749359,Hackney
387,King Fried Chicken,"116 Upper Clapton Rd, Clapton, London E5 9JY, UK",51.5631253,-0.0580545,Hackney
388,Perfect Fried Chicken,"114 Stoke Newington High St, Clapton, London N16 7NY, UK",51.5602806,-0.0738022,Hackney
389,Perfect Fried Chicken,"3 Kenninghall Rd, Hackney Downs, London E5 8BS, UK",51.558614,-0.063155,Hackney
390,Perfect Fried Chicken London,"13 Well St, London E9 7QX, UK",51.54008870000001,-0.0549844,Hackney
391,Pizza Hot Fried Chicken,"24 Stoke Newington Rd, Hackney Downs, London N16 7XJ, UK",51.55133180000001,-0.0749277,Hackney
392,Quality Fried Chicken London,"203 Homerton High St, Homerton, London E9 6BB, UK",51.5492109,-0.0383058,Hackney
393,Shoreditch Chicken Cod,"212-216 Kingsland Rd, London E2 8AX, UK",51.5348192,-0.0767544,Hackney
394,Taste of Tennessee,"29 Pitfield St, Hoxton, London N1 6HB, UK",51.52717209999999,-0.083757,Hackney
395,Temple of Hackney,"5 Morning Ln, London E9 6NA, UK",51.5458892,-0.0540811,Hackney
396,The chicken box,"Bethnal Green Rd, Hackney, London E1 6GY, UK",51.5234841,-0.0763749,Hackney
397,Tramshed,"32 Rivington St, Hackney, London EC2A 3LX, UK",51.5259797,-0.0815901,Hackney
398,Bill's Hammersmith Restaurant,"10 Hammersmith Grove, Hammersmith, London W6 7AP, UK",51.4936069,-0.2254393,Hammersmith and Fulham
399,Bill's Westfield Restaurant,"Westfield Shopping Centre, Southern Terrace, Ariel Way, London W12 7GB, United Kingdom",51.5067229,-0.221294,Hammersmith and Fulham
400,Chicken Cottage,"162 Uxbridge Rd, Shepherd's Bush Green, White City, London W12 8AA, UK",51.5051453,-0.2239507,Hammersmith and Fulham
401,Chicken Cottage Fulham,"264 North End Rd, Fulham, London SW6 1NG, UK",51.4840982,-0.2016298,Hammersmith and Fulham
402,Chicken Cottage Shepherd's Bush,"270 Uxbridge Rd, Shepherd's Bush, London W12 7JA, UK",51.5062055,-0.2297702,Hammersmith and Fulham
403,Chicken Cottage West Kensington,"82 North End Rd, Hammersmith, London W14 9ES, UK",51.4906028,-0.2069453,Hammersmith and Fulham
404,Chicken Valley,"232 Uxbridge Rd, Shepherd's Bush, London W12 7JD, UK",51.5058882,-0.2278095,Hammersmith and Fulham
405,Chicken kitchen,"120 Goldhawk Rd, White City, London W12 8HD, UK",51.5018983,-0.2300179,Hammersmith and Fulham
406,Coqfighter West Brompton,"6 Lillie Rd, Hammersmith, London SW6 1TU, UK",51.4871357,-0.1968395,Hammersmith and Fulham
407,Favorite Chicken & Ribs,"101 Fulham Palace Rd, Hammersmith, London W6 8JA, UK",51.4885806,-0.2225085,Hammersmith and Fulham
408,Fulham Fried Chicken,"488 Fulham Palace Rd, Fulham, London SW6 5UA, UK",51.48040169999999,-0.1982508,Hammersmith and Fulham
409,Imperial Dragon,"78 Fulham Palace Rd, Hammersmith, London W6 9PL, UK",51.488798,-0.223025,Hammersmith and Fulham
410,KFC,"408 Uxbridge Rd, Shepherd's Bush, London W12 0NP, UK",51.506296,-0.237229,Hammersmith and Fulham
411,KFC,"171 Uxbridge Rd, The Vale, London W12 9RA, UK",51.5062808,-0.2373322,Hammersmith and Fulham
412,KFC,"88-90 King St, Hammersmith, London W6 0QW, UK",51.4926701,-0.2297,Hammersmith and Fulham
413,Pepe's Piri Piri,"607 Fulham Rd, Fulham, London SW6 5UA, UK",51.48024299999999,-0.197991,Hammersmith and Fulham
414,Roosters Piri Piri,"24 Shepherd's Bush Green, Hammersmith, London W12 8PH, UK",51.503898,-0.219652,Hammersmith and Fulham
415,Sammy's,"268 Uxbridge Rd, White City, London W12 7JA, UK",51.5061854,-0.2297301,Hammersmith and Fulham
416,Sammys Peri Peri Chicken London,"Uxbridge Rd, White City, London W12 7LJ, UK",51.5064597,-0.2323551,Hammersmith and Fulham
417,WingWing Krispy Chicken,"18-20 Hammersmith Broadway, Hammersmith, London W6 7AF, UK",51.493509,-0.2241633,Hammersmith and Fulham
418,Chestersway Chicken Tottenham,"252 High Rd, Tottenham, London N15 4AJ, UK",51.5852843,-0.071592,Haringey
419,Chick King,"755 High Rd, Tottenham, London N17 8AH, UK",51.6044726,-0.0682549,Haringey
420,Chicken Bite,"414 High Rd, Tottenham, London N17 9JB, UK",51.5915601,-0.0697426,Haringey
421,Chicken Express,"270 High Rd, Wood Green, London N22 8JX, UK",51.6015046,-0.1117895,Haringey
422,Chicken Express,"86 High Rd, London N15 6JU, UK",51.5778568,-0.0729598,Haringey
423,Chicken Express bg,"109 Bruce Grove, Tottenham, London N17 6UR, UK",51.5952855,-0.07103029999999999,Haringey
424,Chicken express,"510 Lordship Ln, London N22 5DE, UK",51.5983081,-0.0939995,Haringey
425,Chickory's Chicken,"63 Turnpike Ln, Hornsey, London N8 0EE, UK",51.5894474,-0.1070085,Haringey
426,Dfc Delicious Fried Chicken,"Finsbury Park, London N4 1RU, United Kingdom",51.5768481,-0.1040047,Haringey
427,Dixy Chicken,"471 High Rd, Tottenham, London N17 6QA, UK",51.5925148,-0.0699301,Haringey
428,Dixy Chicken,"44 Topsfield Rd, Crouch End, London N8 8PT, UK",51.58118229999999,-0.1220861,Haringey
429,Dixy Chicken & Pizza,"194 High Rd, Wood Green, London N22 8HH, UK",51.5975202,-0.1100108,Haringey
430,Favorite Chicken & Ribs,"Queens Parade, 4, Brownlow Rd N11 2DN, United Kingdom",51.606924,-0.123632,Haringey
431,Favorite Chicken & Ribs,"266 W Green Rd, West Green, London N15 3BL, UK",51.5864997,-0.08916349999999999,Haringey
432,Flavas Chicken & Pizza,"Latham Court, Brownlow Rd, Bounds Green, London N11 2ES, UK",51.60728959999999,-0.1240166,Haringey
433,Franzos Piri Piri London,"152 High Rd, Wood Green, London N22 6EB, UK",51.5958025,-0.1088023,Haringey
434,Halal Fried Chicken,"Tottenham, London N17 0JN, United Kingdom",51.6023289,-0.05891,Haringey
435,Hardies Fried Chicken and Peri Peri Chicken,"1 Station Rd, Wood Green, London N22 6UX, UK",51.597057,-0.1103055,Haringey
436,KFC,"3-4 The Broadway, Wood Green, London N22 6DS, UK",51.5957297,-0.1091805,Haringey
437,KFC,"3 Ferry Ln, London N17 9NF, UK",51.5873004,-0.0545078,Haringey
438,Kalam Chicken & Pizza,"687 High Rd, Tottenham, London N17 8AD, UK",51.60074239999999,-0.0680061,Haringey
439,Kandy Fried Chicken Chicken.Pizza.Peri Peri,"Tottenham, London N15 4HH, United Kingdom",51.5890733,-0.0801573,Haringey
440,Kansas Chicken & Ribs,"102 High St, Hornsey, London N8 7NT, UK",51.5876448,-0.1162317,Haringey
441,Pepe's Piri Piri,"18 The Broadway, High Rd, Hornsey, London N22 6DS, UK",51.5965332,-0.1095166,Haringey
442,Perfect Fried Chicken,"Tottenham, London N17 9JF, United Kingdom",51.59332819999999,-0.0695113,Haringey
443,Perfect Fried Chicken London,"124 W Green Rd, Tottenham, London N15 5AA, UK",51.5852724,-0.07860779999999999,Haringey
444,Roosters Piri Piri,"6 High Rd, Hornsey, London N22 6BX, UK",51.5908129,-0.103498,Haringey
445,Sam's Chicken,"843 High Rd, Tottenham, London N17 8EY, UK",51.6069803,-0.06824369999999999,Haringey
446,Selekt Chicken,"16 Turnpike Ln, Wood Green, London N8 0PT, UK",51.5901417,-0.1045505,Haringey
447,Tasters Take Away,"93 W Green Rd, Tottenham, London N15 5DA, UK",51.5847907,-0.0773119,Haringey
448,Tennesee Fried Chicken,"44 Stroud Green Rd, Finsbury Park, London N4 3ES, UK",51.5671609,-0.1081184,Haringey
449,Tennessee Fried Chicken,"278 Langham Rd, London N15 3NP, UK",51.59066499999999,-0.1028194,Haringey
450,The Chick House,"395 Green Lanes, Harringay, London N4 1EU, UK",51.5777703,-0.0990462,Haringey
451,Tottenham Fried Chicken,"561 High Rd, Tottenham, London N17 6SB, UK",51.5956632,-0.06897,Haringey
452,Belmont Bay Fish & Chips,"500 Kenton Ln, Stanmore, Harrow HA3 8RD, UK",51.6012333,-0.3189236,Harrow
453,CHICKEN LAND,"153 Greenford Rd, Sudbury Hill, London, Harrow HA1 3QN, UK",51.5576868,-0.3357481,Harrow
454,California Hatch End,"4 Pickwick Walk, 286 Uxbridge Road, Hatch End HA5 4HS, United Kingdom",51.60804400000001,-0.373597,Harrow
455,Ceylon Choice(one and only Srilanka HMC Restaurant ),"26 Palmerston Rd, Harrow HA3 7AB, UK",51.5937134,-0.3345733,Harrow
456,Chicken City & Pizza,"79 Station Rd, Harrow HA2 7SW, UK",51.5845747,-0.3624969000000001,Harrow
457,Chicken Cottage,"229 Station Rd, Harrow HA1 2TB, UK",51.5836444,-0.3319915,Harrow
458,Chicken Cottage,"461 Rayners Lane, Alexandra Ave, London HA2 9RY, United Kingdom",51.574622,-0.3712432,Harrow
459,Chicken Cottage Harrow,"Broadway Parade, 3 Pinner Rd, Harrow HA2 7SY, UK",51.5862322,-0.3616932,Harrow
460,Chuck,"322-324 Uxbridge Rd, Pinner HA5 4HR, UK",51.60766599999999,-0.374845,Harrow
461,Club 2000,"427-431 Rayners Ln, Pinner HA5 5ER, UK",51.5770177,-0.3714061,Harrow
462,Everest Abercorn,"78 Stanmore Hill, Stanmore HA7 3BU, UK",51.62102669999999,-0.3158765,Harrow
463,Fab's Peri Peri Chicken & Pizza,"416 Alexandra Ave, Harrow HA2 9TR, UK",51.5729771,-0.3709693,Harrow
464,Fabs Chicken and Pizza,"14 Broadwalk, Harrow HA2 6ED, UK",51.5871554,-0.362553,Harrow
465,Fabs Peri Peri Chicken & Pizza,"416 Alexandra Ave, Harrow HA2 9TR, UK",51.572973,-0.3709703,Harrow
466,Favorite Chicken & Ribs,"381 Honeypot Ln, Stanmore HA7 1JJ, UK",51.59589130000001,-0.2947405,Harrow
467,HARROW PERI PERI,"376 Station Rd, Harrow HA1 2DE, UK",51.5792191,-0.333765,Harrow
468,Harrow Good Chef,"144 Vaughan Rd, Harrow HA1 4EB, UK",51.578988,-0.349606,Harrow
469,KFC,"374 High Rd, Harrow HA3 6HF, UK",51.6071856,-0.3398684,Harrow
470,KFC,"447 Alexandra Ave, Harrow HA2 9SE, UK",51.57414290000001,-0.3714107,Harrow
471,KFC,"Kenton Park Parade, 22 Kenton Rd, Harrow HA3 8DQ, UK",51.5872082,-0.3048408,Harrow
472,New Royal Fried Chicken & Ribs,"31 High St, Harrow HA3 5BY, UK",51.5943251,-0.3353479,Harrow
473,Osteria Modigliani,"52 Bridge St, Pinner HA5 3JF, UK",51.5953667,-0.3842286,Harrow
474,PST Perfect Chicken (Harrow),"209 High Rd, Harrow HA3 5EE, UK",51.6010757,-0.3389003,Harrow
475,Pepe's Piri Piri,"245 Station Rd, Harrow HA1 2TB, UK",51.583229,-0.3319053,Harrow
476,Pinn Peri Peri,"Bridge St, Pinner HA5 3JD, UK",51.5946382,-0.3826640000000001,Harrow
477,Sakee,"173 Marsh Rd, Pinner HA5 5PB, UK",51.5917387,-0.3816381,Harrow
478,Sam's Chicken,"233 Northolt Rd, Harrow HA2 8HN, UK",51.56458139999999,-0.3530191,Harrow
479,Sam's Chicken Harrow,"17 High St, Harrow HA3 5BY, UK",51.5934439,-0.3354209,Harrow
480,Selekt Chicken Harrow,"7 Station Rd, Harrow HA1 2UF, UK",51.5888358,-0.3326844,Harrow
481,Taste Of China,"799 Field End Rd, Harrow, Ruislip HA4 0QL, UK",51.5586118,-0.379814,Harrow
482,Tennessee Fried Chicken,"227 Northolt Rd, Harrow HA2 8HN, UK",51.5646459,-0.3528338,Harrow
483,Western Fried Chicken,"777 A, Field End Rd, Harrow, Ruislip HA4 0QL, UK",51.55889999999999,-0.380031,Harrow
484,White House,"26 The Broadway, Stanmore HA7 4DW, UK",51.6177192,-0.3102717,Harrow
485,Zufa Hatch End,"308 Uxbridge Rd, Pinner HA5 4HR, UK",51.6079653,-0.3742657,Harrow
486,ASK Italian,"168 High St, Hornchurch RM12 6QU, UK",51.561426,0.221132,Havering
487,Albion,"Rainham Rd, Rainham RM13 8SS, UK",51.5229906,0.1916914,Havering
488,Aspen Tree,"Gobions Ave, Romford RM5 3SP, UK",51.6003449,0.1771226,Havering
489,COSMO World Buffet Restaurant | Romford,"Unit 4A, The Brewery, Waterloo Rd, Romford RM1 1AU, UK",51.57507649999999,0.1808188,Havering
490,Chicken valley,"1 Billet Ln, Hornchurch RM11 1TS, UK",51.5631133,0.217168,Havering
491,Churchill's Fish & Chips,"15 Clockhouse Ln, Romford RM5 3PH, UK",51.5997808,0.1633176,Havering
492,Dixy Chicken,"Old Mill Parade, 2, Romford RM1 2HU, United Kingdom",51.574439,0.184531,Havering
493,Favorite Chicken & Ribs,"91 Albert Rd, Romford RM1 2PS, UK",51.5724159,0.191415,Havering
494,Favorite Chicken & Ribs,"171 St. Marys Ln, Upminster RM14 3BL, UK",51.5563806,0.2511485,Havering
495,Favorite Chicken & Ribs,"104 Collier Row Rd, Romford RM5 2BA, UK",51.5982698,0.1576215,Havering
496,Favorite Chicken & Ribs,"11Elm Parade, St Nicholas Ave, Hornchurch RM12 4RH, United Kingdom",51.551194,0.198918,Havering
497,Favorite Chicken & Ribs,"45 Upminster Rd S, Rainham RM13 9YS, UK",51.5186028,0.1921669,Havering
498,Fish'n'Chick'n,"198 Hilldene Ave, Romford RM3 8DB, UK",51.6074723,0.2198992,Havering
499,Flavour Chicken,"175 South St, Romford RM1 1PS, UK",51.5737322,0.1841932,Havering
500,Gidea Park,"91 Main Rd, Romford RM2 5EL, UK",51.5869262,0.2005944,Havering
501,Gondho Raj,"42A London Rd, Romford RM7 9RB, UK",51.57580249999999,0.1761717,Havering
502,Good Intent,"S End Rd, Hornchurch RM12 5NU, UK",51.5406327,0.2028979,Havering
503,Grill'ish,"175 South St, Romford RM1 1PS, UK",51.573732,0.184193,Havering
504,Happy Family,"23 Elm Park Ave, Hornchurch RM12 4SA, UK",51.5514015,0.1998585,Havering
505,Imperial Chef,"128 North St, Romford RM1 1DL, UK",51.5816915,0.1772596,Havering
506,KFC,"Eastern Avenue West Retail Pk, Romford RM7 7JN, United Kingdom",51.5833245,0.1680926,Havering
507,KFC,"Colchester Rd, Romford RM3 8AA, UK",51.59315429999999,0.2139717,Havering
508,KFC,"53 55 St, Romford RM1 1NL, UK",51.577045,0.1818712,Havering
509,KFC,"11 High St, Hornchurch RM11 1TP, UK",51.5632005,0.2139523,Havering
510,KFC,"270 Cherry Tree Ln, Rainham RM13 8TX, UK",51.5283972,0.1893944,Havering
511,King Bbq Pizza,"187 Ardleigh Green Rd, Hornchurch RM11 2SD, UK",51.583793,0.220206,Havering
512,Le Hope,"25 Upminster Rd S, Rainham RM13 9YS, UK",51.518459,0.1913892,Havering
513,Man Bow House,"6 Marlborough Rd, Romford RM7 8AJ, UK",51.5823903,0.1639709,Havering
514,New Beijing Takeaway,"46 Corbets Tey Rd, Upminster RM14 2AB, UK",51.5529455,0.2472072,Havering
515,Peking Express,"133 Avon Rd, Upminster RM14 1RQ, UK",51.56865939999999,0.2675872,Havering
516,Peking House,"198 Upminster Rd S, Rainham RM13 9BH, UK",51.52006859999999,0.2028105,Havering
517,Perfect Fried Chicken,"169 New Rd, Rainham RM13 8SH, UK",51.5237244,0.1784022,Havering
518,Romford Grill,"3 Clockhouse Ln, London RM5 3PH, UK",51.5993189,0.1627028,Havering
519,Smokin' Griddle,"143 Heath Park Rd, Romford RM2 5XJ, UK",51.578184,0.2067878,Havering
520,Tarantino,"51 High St, Hornchurch RM11 1TP, UK",51.5631447,0.2167052,Havering
521,Tasty fish bar kebap & house,"Hacton Parade, Central Dr, Hornchurch RM12 6EL, UK",51.5525967,0.229106,Havering
522,The Compasses,"125 Abbs Cross Ln, Hornchurch RM12 4XS, UK",51.5577936,0.2092633,Havering
523,The Essex Grill Chicken,"177 St. Marys Ln, Upminster RM14 3BL, UK",51.5563517,0.2514359,Havering
524,The Huntsman & Hounds,"Ockendon Road, Upminster RM14 2DN, United Kingdom",51.5426867,0.2519934,Havering
525,Toby Carvery Romford,"The Brewery, Romford RM1 1AU, UK",51.5749773,0.1806149,Havering
526,ASK Italian,"139-140 High St, Uxbridge UB8 1JX, UK",51.5475,-0.480452,Hillingdon
527,Al Hyderabadi Cuisine,"14 Botwell Ln, Hayes UB3 2AA, UK",51.5075157,-0.4189465,Hillingdon
528,Ask Italian,"35A Green Ln, Northwood HA6 2PX, UK",51.6119766,-0.4256733,Hillingdon
529,Beef Belly Halal Burgers and Peri Peri Chicken,"14 New Broadway, Uxbridge Rd, Uxbridge UB10 0LJ, UK",51.5312687,-0.4491063,Hillingdon
530,Birothi Restaurant,"47 Swakeleys Rd, Ickenham, Uxbridge UB10 8DG, UK",51.564964,-0.446121,Hillingdon
531,Chicken Corner,"Western Parade, 1, Long Ln, Uxbridge UB10 9PQ, United Kingdom",51.5517761,-0.4484605,Hillingdon
532,Chicken Cottage,"9 Station Rd, Hayes UB3 4BD, UK",51.5067753,-0.4185032,Hillingdon
533,Chicken Cottage Hillingdon,"5a Westbourne Rd, Uxbridge UB10 0NY, UK",51.52908410000001,-0.4457171,Hillingdon
534,Chiquito,"4 The Old Dairy HA4 0FY, United Kingdom",51.559116,-0.400011,Hillingdon
535,Chiquito,"Intu, Uxbridge UB8 1GE, United Kingdom",51.5451832,-0.4758196,Hillingdon
536,Chixys Hayes,"21 Botwell Ln, Hayes UB3 2AB, UK",51.5074644,-0.4194766,Hillingdon
537,Chunkys,"143 N Hyde Rd, Hayes UB3 4NS, UK",51.4979273,-0.4143464,Hillingdon
538,Codfather Fish & Chips,"1 Mulberry Parade, West Drayton UB7 9AE, UK",51.5044479,-0.4584049,Hillingdon
539,Dawley Chicken,"7 Dawley Parade, Hayes UB3 1EA, UK",51.5152405,-0.4376909,Hillingdon
540,Dawleychicken Hayes By Pass,"126 Uxbridge Rd, Hayes UB4 0JH, UK",51.5149335,-0.3952608,Hillingdon
541,Favorite Chicken & Ribs,"13 Victoria Rd, Ruislip HA4 9AA, UK",51.5734435,-0.4129493,Hillingdon
542,Favorite Chicken & Ribs,"6 Sipson Rd, West Drayton UB7 9DP, UK",51.50203399999999,-0.466609,Hillingdon
543,Flame In Grill,"67 Station Rd, West Drayton UB7 7LR, UK",51.5077655,-0.4723883,Hillingdon
544,George & Dragon,"176 High St, West Drayton UB7 7BE, UK",51.5148696,-0.4739011,Hillingdon
545,Gumba Restaurant Uxbridge,"2 New Broadway, Uxbridge UB10 0LH, UK",51.530682,-0.448068,Hillingdon
546,Harefield Village Café,"5 High St, Harefield, Uxbridge UB9 6BX, UK",51.6038578,-0.4819941,Hillingdon
547,Hollywood Pizza & Chicken,"126 High St, West Drayton UB7 7BD, UK",51.5138013,-0.4731178,Hillingdon
548,Holy Zam Zam 4,"226 High St, Harlington, Hayes UB3 5DS, UK",51.4873184,-0.4360704,Hillingdon
549,Jamaican Cuisine,"108-110, Pembroke Rd, Ruislip HA4 8NW, UK",51.5735404,-0.4139588,Hillingdon
550,KFC,"High St, Uxbridge UB8 1JX, UK",51.5475016,-0.4809784,Hillingdon
551,KFC,"78 High St, West Drayton UB7 7DS, UK",51.5125703,-0.4722704,Hillingdon
552,KFC,"650 Uxbridge Rd, Hayes UB4 0RY, UK",51.51971409999999,-0.412717,Hillingdon
553,KFC,"9 Bath Rd, Longford, Hounslow TW6 2AA, UK",51.48092339999999,-0.4193752,Hillingdon
554,KOKORO Uxbridge,"20 High St, Uxbridge UB8 1JN, UK",51.5454817,-0.4785153,Hillingdon
555,King's Peri Peri,"308A Kingshill Ave, Hayes UB4 8BX, UK",51.5316427,-0.4229324,Hillingdon
556,Magic Wok,"24 High St, Northwood HA6 1BN, UK",51.60596469999999,-0.4168835,Hillingdon
557,Masala & Coal,"298 W End Rd, Ruislip HA4 6LS, UK",51.5623043,-0.4136147,Hillingdon
558,Mazaa,"63 Coldharbour Ln, Hayes UB3 3EE, UK",51.5088989,-0.4158924,Hillingdon
559,Munchies Fish & Chips,"8 Coldharbour Ln, Hayes UB3 3HE, UK",51.5104087,-0.4137852,Hillingdon
560,My Grill,"6 Long Dr, Ruislip HA4 0HG, UK",51.557489,-0.3970050000000001,Hillingdon
561,PANGS 彭城,"305 Long Ln, Uxbridge UB10 9JY, UK",51.5511566,-0.4492804,Hillingdon
562,Pepe's Grill Northwood,"36 Joel St, Northwood HA6 1PA, UK",51.6017124,-0.4096255,Hillingdon
563,Peri Chick 'n' Grill,"34 Cowley Mill Rd, West Drayton UB8 2QD, UK",51.5381569,-0.4866763,Hillingdon
564,Peri Peri Chicken,"High St, Harefield, Uxbridge UB9 6BX, UK",51.6038086,-0.4820237,Hillingdon
565,Peri Peri Original,"77 High St, West Drayton UB7 7QH, UK",51.51255519999999,-0.4727323,Hillingdon
566,Popeyes Peri Peri,"23 Station Rd, West Drayton UB7 7BT, UK",51.5087974,-0.473617,Hillingdon
567,Red Iron Burgers,"280 High St, Uxbridge UB8 1LQ, UK",51.5448275,-0.4768429,Hillingdon
568,Royal Chicken Hayes,"46 Coldharbour Ln, Hayes UB3 3EP, UK",51.5081401,-0.4161955,Hillingdon
569,Royal Chicken n Pizza,"135 Field End Rd, Pinner HA5 1QH, UK",51.5790506,-0.3991507,Hillingdon
570,STOBYS of HAYES,"7A Bourne Circus, Hayes UB3 1PS, UK",51.50248370000001,-0.4410896,Hillingdon
571,Stobys Fish & Chips,"720 Field End Rd, Ruislip HA4 0QP, UK",51.5608116,-0.3809195,Hillingdon
572,Stobys Fish and chips,"134 Ryefield Ave, Uxbridge UB10 9DA, UK",51.5444733,-0.4402383,Hillingdon
573,Summer China,"44 Victoria Rd, Ruislip HA4 0AG, UK",51.57238659999999,-0.4127222,Hillingdon
574,Tams Peri Peri Chicken,"78 Joel St, Northwood HA6 1LL, UK",51.599605,-0.410066,Hillingdon
575,Tennesse Express,"Middlesex House, 800 Uxbridge Rd, Hayes UB4 0JH, UK",51.5148965,-0.3953351,Hillingdon
576,The George,"Bury St, Ruislip HA4 7TJ, UK",51.5767863,-0.4277803,Hillingdon
577,The Hubb Restaurant,"60 Joel St, Northwood HA6 1PA, UK",51.6010707,-0.4097236,Hillingdon
578,Virgin Chicken & Ribs,"266 Yeading Ln, Hayes UB4 9AX, UK",51.5287945,-0.3983302,Hillingdon
579,Virundhu Street Kitchen,"104 Victoria Rd, Ruislip HA4 0AL, UK",51.57087019999999,-0.4115727,Hillingdon
580,West Drayton Fish Bar,"14 Sipson Rd, West Drayton UB7 9DP, UK",51.5019266,-0.4663822,Hillingdon
581,Wonder Cafe & Grill,"Uxbridge Rd, Uxbridge UB10 0PH, UK",51.532661,-0.453079,Hillingdon
582,Wongs,"97 Manor Way, Ruislip HA4 8HW, UK",51.5746537,-0.4145862,Hillingdon
583,Woodland Pizza & Kebab,"24 Cowley Rd, Uxbridge UB8 2LT, UK",51.5430108,-0.4813027,Hillingdon
584,Wraps & Wings Eastcote,"92 Field End Rd, Ruislip, Pinner HA5 1RL, UK",51.580329,-0.400355,Hillingdon
585,Zufa Northwood,"1-3 Joel St, Northwood HA6 1NU, UK",51.6023446,-0.408977,Hillingdon
586,Aladdin's Fried Chicken,"86-88 Kingsley Rd, Hounslow TW3 1QA, UK",51.4728259,-0.3567693000000001,Hounslow
587,Albany Spice,"Albany Parade, 1 High St, Brentford TW8 0JW, UK",51.485615,-0.301361,Hounslow
588,CFC Fast Food,"238 High St, Hounslow TW3 1HB, UK",51.4682126,-0.3658254,Hounslow
589,Chicken Cottage,"290 Bath Rd, Hounslow TW4 7DN, UK",51.472806,-0.38628,Hounslow
590,Chicken Cottage Hanworth,"216 Hampton Rd W, Feltham TW13 6BG, UK",51.43687389999999,-0.3801303,Hounslow
591,Chicken Cottage Hounslow,"70 Vicarage Farm Rd, Hounslow TW5 0AB, UK",51.47750449999999,-0.3838992,Hounslow
592,Chicken Express,"176 Brabazon Rd, Hounslow TW5 9LP, UK",51.484691,-0.396404,Hounslow
593,Chicken Supreme,"16 Kingsley Rd, Hounslow TW3 1NP, UK",51.4711499,-0.3554145,Hounslow
594,China Chef,"3 Hamilton Rd, Feltham TW13 4PJ, UK",51.4327117,-0.4183849,Hounslow
595,Chiquito,"Unit E, Leisure west, Air Park Way, Feltham TW13 7LX, UK",51.4439865,-0.4070799000000001,Hounslow
596,Cinnamon Lounge,"181 Twickenham Rd, Isleworth TW7 6AB, UK",51.47229249999999,-0.3285281,Hounslow
597,Crunchies Chicken,"56 Lampton Rd, Hounslow TW3 1JQ, UK",51.4711152,-0.3673394,Hounslow
598,Dejandos,"219 Twickenham Rd, Isleworth TW7 6AA, UK",51.47087399999999,-0.3286344,Hounslow
599,Farm Fried Chicken Pizza and Burgers,"481 London Rd, Isleworth TW7, UK",51.4749565,-0.3381011,Hounslow
600,Favorite Chicken & Ribs,"17 Central Parade, Hounslow TW5 0LQ, UK",51.4852814,-0.3738808,Hounslow
601,Feltham Charcoal Grill,"87 Bedfont Ln, Feltham TW14 9BH, UK",51.4483161,-0.4126553,Hounslow
602,Fooks House,"141 Staines Rd, Feltham TW14 0JS, UK",51.4573177,-0.409632,Hounslow
603,Frankie & Benny's,"Leisure west, Browells Ln, Feltham TW13 7EQ, UK",51.4435979,-0.4064351,Hounslow
604,Haris Fried Chicken,"35 Cromwell Rd, Hounslow TW3 3QG, UK",51.4649075,-0.3738477,Hounslow
605,Ing Thai restaurant,"68 High St, Brentford TW8 0AH, UK",51.48421459999999,-0.3031491,Hounslow
606,KFC,"88 Chiswick High Rd, Chiswick, London W4 1SH, UK",51.4930638,-0.2507463,Hounslow
607,KFC,"211 High St, Brentford TW8 8AH, UK",51.48347,-0.3074864,Hounslow
608,KFC,"1 Cavendish Parade, Hounslow West, Hounslow TW4 7DJ, UK",51.4723975,-0.3851439,Hounslow
609,KFC,"24 Hampton Rd W, West, Feltham TW13 6AW, UK",51.440087,-0.3877533,Hounslow
610,Karahi Express,"378 Bath Rd, Hounslow TW4 7HT, UK",51.4737124,-0.3894679,Hounslow
611,Man Vs Food,"42 Syon Ln, Isleworth TW7 5NQ, UK",51.4836152,-0.3287442,Hounslow
612,McDonald's,"2 Bedfont Ln, Feltham TW13 4AE, UK",51.4471535,-0.4095605,Hounslow
613,"Namaste Gurkha, Nepalese Restaurant","Parkfield Parade, 1, Feltham TW13 4HJ, United Kingdom",51.4401406,-0.415391,Hounslow
614,Nando's,"The Centre, Feltham TW13 4BS, UK",51.4451119,-0.4109014,Hounslow
615,Nido's Feltham,"100 Harlington Rd W, Feltham TW14 0JJ, UK",51.4568574,-0.4094597,Hounslow
616,Peri Peri Hounslow,"43 Kingsley Rd, Hounslow TW3 1PA, UK",51.4722281,-0.3558032,Hounslow
617,Phoenix,"3 Spring Rd, Feltham TW13 4PA, UK",51.4390405,-0.418612,Hounslow
618,RFC,"107 High St, Hounslow TW3 1QT, UK",51.4696181,-0.3579995,Hounslow
619,Rice and Spice,"Spring Corner, High St, Feltham TW13 4PA, UK",51.43903239999999,-0.4186819,Hounslow
620,Rooster's Chicken Isleworth,"550 London Rd, Isleworth TW7 4EP, UK",51.4743951,-0.3441811,Hounslow
621,Royal Flame Chicken,"412 Staines Rd, Feltham TW14 8BT, UK",51.4533971,-0.4304872,Hounslow
622,Sam's Chicken,"5 Cavendish Parade, Hounslow TW4 7DJ, UK",51.4725192,-0.3853964,Hounslow
623,Selekt chicken,"77 Kingsley Rd, Hounslow TW3 4AB, UK",51.4737695,-0.3572531,Hounslow
624,Sharkys,"499 Staines Rd, Feltham TW14 8BN, UK",51.4533622,-0.4289045,Hounslow
625,Southern Fried Chicken,"267 Cromwell Rd, Hounslow TW3 3QU, UK",51.459575,-0.3702805,Hounslow
626,Southern Fried Chicken & Pizzas,"267 Cromwell Rd, Hounslow TW3 3QU, UK",51.459575,-0.3702805,Hounslow
627,Tennessee,"Feltham TW13 4BU, United Kingdom",51.4448549,-0.4109283,Hounslow
628,The Bridge Inn,"457 London Rd, Isleworth TW7 5AA, UK",51.4751213,-0.3359012,Hounslow
629,The General Roy,"Poplar Way, Feltham TW13 7AB, UK",51.4380015,-0.4113042,Hounslow
630,Tiger Lily,"169 Thornbury Rd, Osterley, Isleworth TW7 4QG, UK",51.4829574,-0.3476692000000001,Hounslow
631,West Kebab,"123 Harlington Rd W, Feltham TW14 0JG, UK",51.4563938,-0.4096495,Hounslow
632,Wise Guys Gourmet Burgers,"11 Rochester Ave, Feltham TW13 4DX, UK",51.4409094,-0.4148623,Hounslow
633,"takaa tak, Hounslow","274 Bath Rd, Hounslow TW4 7DF, UK",51.472302,-0.384737,Hounslow
634,Abi's Pizza & Fried Chicken,"88 Seven Sisters Rd, London N7 6AE, UK",51.5594544,-0.1161101,Islington
635,Angel fried chicken and pizza,"63 Essex Rd, The Angel, London N1 2SF, UK",51.5376656,-0.1003491,Islington
636,BIRD,"81 Holloway Rd, London N7 8LT, UK",51.54768439999999,-0.106152,Islington
637,Chick 'n' Sours,"62 Upper St, The Angel, London N1 0NY, UK",51.5358723,-0.1039758,Islington
638,Chicken Diner,"Central St, London EC1V 8AB, UK",51.5269945,-0.0966242,Islington
639,Chicken Express,"274 Seven Sisters Rd, Finsbury Park, London N4 2HY, UK",51.564352,-0.104811,Islington
640,Chicken Express,"57 Newington Green, London N16 9PX, UK",51.5513197,-0.0859849,Islington
641,Chicken Express (Holloway),"35 Seven Sisters Rd, London N7 6AX, UK",51.55885079999999,-0.1178538,Islington
642,Chicken Ranch,"50 Rosebery Ave, Clerkenwell, London EC1R 4RP, UK",51.5256283,-0.1102076,Islington
643,City Delight,"268 St John St, Clerkenwell, London EC1V 4PE, UK",51.5265327,-0.1036079,Islington
644,Eden's Cottage,"264 Seven Sisters Rd, Finsbury Park, London N4 2HY, UK",51.564267,-0.1051874,Islington
645,KFC,"241 Upper St, Highbury, London N1 1RU, UK",51.54502,-0.1035058,Islington
646,Kennedy Chicken,"300 St Paul's Rd, Highbury East, London N1 2LH, UK",51.546256,-0.1015179,Islington
647,Mississippi Fried Chicken,"159 Essex Rd, Islington, London N1 2SN, UK",51.5401403,-0.09686439999999999,Islington
648,Mother Clucker,"59-61 Rosebery Ave, Farringdon, London EC1R 4SD, UK",51.5258569,-0.1103615,Islington
649,New Jersey Chicken,"267 Caledonian Rd, Islington, London N1 1EE, UK",51.5397872,-0.1170731,Islington
650,Pepe's Piri Piri (Holloway Road),"199 Holloway Rd, London N7 8DJ, UK",51.5506946,-0.1099909,Islington
651,Pfc Fried Chicken,"287 Hornsey Rd, London N19 4HN, UK",51.56344259999999,-0.118518,Islington
652,Q's Kitchen,"12 Caledonian Rd, Islington, London N1 9DU, UK",51.531363,-0.120738,Islington
653,S.A PFC,"181b Blackstock Rd, Highbury East, London N5 2LL, UK",51.5606577,-0.0984395,Islington
654,Chicken Cottage,"148 Ladbroke Grove, LADBROOKE GROVE, London W10 5NE, UK",51.5181358,-0.2102217,Kensington and Chelsea
655,Jollibee London,"180 Earls Ct Rd, Kensington, London SW5 9QG, UK",51.4931564,-0.1946177,Kensington and Chelsea
656,KFC,"44 Notting Hill Gate, Bayswater, London W11 3HX, UK",51.5094979,-0.1951248,Kensington and Chelsea
657,KFC,"81 Gloucester Rd, South Kensington, London SW7 4SS, UK",51.4946361,-0.1823854,Kensington and Chelsea
658,KFC,"173-175 Earls Ct Rd, Earl's Court, London SW5 9RF, UK",51.4925437,-0.1933308,Kensington and Chelsea
659,"Star Fried Chicken, Pizza & Kebab","12 N Pole Rd, London W10 6QL, UK",51.5199154,-0.2260455,Kensington and Chelsea
660,Bill's Kingston Restaurant,"2 Riverside Walk, Kingston upon Thames KT1 1QN, UK",51.4108619,-0.3079203,Kingston upon Thames
661,Busaba Kingston Riverside,"4 Riverside Walk, Kingston upon Thames KT1 1QN, UK",51.41072330000001,-0.3079709,Kingston upon Thames
662,Chic O Land (pizza),"2A St James's Rd, Kingston upon Thames KT1 2AA, UK",51.4079566,-0.3052092,Kingston upon Thames
663,Chick and Beers,"24 Coombe Rd, New Malden KT3 4QE, UK",51.4046451,-0.2572684,Kingston upon Thames
664,Chicken House Kingston,"25 Richmond Rd, Kingston upon Thames KT2 5BW, UK",51.4137291,-0.3007654,Kingston upon Thames
665,Chicken Land,"346 Hook Rd, Chessington KT9 1NU, UK",51.3668059,-0.3071285,Kingston upon Thames
666,Chicken Land Surbiton,"3 Brighton Rd, Surbiton KT6 5LX, UK",51.3908607,-0.3088894,Kingston upon Thames
667,Dallas Chicken & Ribs Kingston,"147 Clarence St, Kingston upon Thames KT1 1QT, UK",51.4111246,-0.3008741,Kingston upon Thames
668,Druids Head,"3 Market Place, Kingston upon Thames KT1 1JT, UK",51.4092554,-0.306518,Kingston upon Thames
669,Farm Fresh Burgers & Shakes,"15 Penrhyn Rd, Kingston upon Thames KT1 2BZ, UK",51.4049894,-0.3038733,Kingston upon Thames
670,Favorite Chicken & Ribs,"55 Cambridge Rd, Kingston upon Thames KT1 3NS, UK",51.40842790000001,-0.2850709,Kingston upon Thames
671,Flame and Frappe,"257 Ewell Rd, Surbiton KT6 7AA, UK",51.38535,-0.2951939,Kingston upon Thames
672,Frankie & Benny's,"The Rotunda, Unit 7, First Floor, Kingston upon Thames KT1 1QT, United Kingdom",51.411887,-0.299858,Kingston upon Thames
673,Gourmet Burger Kitchen (Kingston),"42-46 High St, Kingston upon Thames KT1 1HL, UK",51.407807,-0.3078904,Kingston upon Thames
674,KFC,"131-135 High St, New Malden KT3 4BH, UK",51.39997839999999,-0.2558458,Kingston upon Thames
675,KFC,"15 Brighton Rd, Surbiton KT6 5LR, UK",51.39118550000001,-0.3094247,Kingston upon Thames
676,KFC,"2-4 N Parade, Chessington KT9 1QF, UK",51.3638294,-0.2991967,Kingston upon Thames
677,Kangnam,"19A High St, New Malden KT3 4BY, UK",51.4028416,-0.2566884,Kingston upon Thames
678,Kebabs & Southern Fried Chicken,"Surbiton KT6 4LF, United Kingdom",51.3928905,-0.3047008,Kingston upon Thames
679,Kingston Kebab Centre,"66 Surbiton Rd, Kingston upon Thames KT1 2HT, UK",51.40119199999999,-0.304022,Kingston upon Thames
680,Kokoro Kingston,"4 Castle St, Kingston upon Thames KT1 1SS, UK",51.4110101,-0.3017241,Kingston upon Thames
681,La Fratelli Restaurant,"41 Tolworth Broadway, Surbiton KT6 7DJ, UK",51.3809499,-0.2822562,Kingston upon Thames
682,Moksha,"216 Kingston Rd, New Malden KT3 3RJ, UK",51.4028012,-0.272967,Kingston upon Thames
683,Nori,"41 High St, New Malden KT3 4BY, UK",51.402343,-0.256636,Kingston upon Thames
684,O'Neill's Kingston upon Thames,"3 Eden St, Kingston upon Thames KT1 1BQ, UK",51.40909329999999,-0.305501,Kingston upon Thames
685,Patcharee Thai Restaurant,"11 Richmond Rd, Kingston upon Thames KT2 5BW, UK",51.41303869999999,-0.3008504,Kingston upon Thames
686,Pepes Piri Piri Kingston,"45-47 Fife Rd, Kingston upon Thames KT1 1SF, UK",51.4121129,-0.3018392,Kingston upon Thames
687,Planet China Kingston,"72 Richmond Rd, Kingston upon Thames KT2 5EL, UK",51.4154148,-0.3008144,Kingston upon Thames
688,Poor Boys,"The Griffin Centre, 5, Kingston upon Thames KT1 1JT, United Kingdom",51.4089819,-0.3068359,Kingston upon Thames
689,Raka Indian cuisine & Fastfood,"70 Surbiton Rd, Kingston upon Thames KT1 2HT, UK",51.4011169,-0.3039363,Kingston upon Thames
690,Roosters Piri Piri,"4 Richmond Rd, Kingston upon Thames KT2 5EB, UK",51.4125887,-0.300376,Kingston upon Thames
691,Sorabol Restaurant,"180 High St, New Malden KT3 4ES, UK",51.3990056,-0.2552279,Kingston upon Thames
692,Surbiton Charcoal Grill,"51 Brighton Rd, Surbiton KT6 5LR, UK",51.3916895,-0.3104885,Kingston upon Thames
693,Surbiton Chargrill Take Away,"86 Victoria Rd, Surbiton KT6 4NS, UK",51.3928842,-0.3046839,Kingston upon Thames
694,The Antelope,"87 Maple Rd, Surbiton KT6 4AW, UK",51.3951816,-0.3076819,Kingston upon Thames
695,The Best Turkish Kebab,"18 Coombe Rd, New Malden KT3 4QE, UK",51.4045012,-0.257223,Kingston upon Thames
696,The Chessington Oak,"Moor Ln, Chessington KT9 1HX, UK",51.36393899999999,-0.29671,Kingston upon Thames
697,The Grey Horse,"46 Richmond Rd, Kingston upon Thames KT2 5EE, UK",51.414268,-0.300605,Kingston upon Thames
698,The Shy Horse,"423 Leatherhead Rd, Chessington KT9 2NQ, UK",51.3371399,-0.3198115,Kingston upon Thames
699,Weldfinn,"40-42 Hawks Rd, Kingston upon Thames KT1 3EG, UK",51.4089441,-0.2916984,Kingston upon Thames
700,Wok 'n' Fish,"74 Elm Rd, New Malden KT3 3HN, UK",51.4037931,-0.2655114,Kingston upon Thames
701,Yami Restaurant,"69 High St, New Malden KT3 4BT, UK",51.401565,-0.256262,Kingston upon Thames
702,Best Fried Chicken,"22 Milkwood Rd, Brixton, London SE24 0HH, UK",51.46364380000001,-0.1013218,Lambeth
703,Best Fried Chicken,"558 Streatham High Rd, Streatham, London SW16 3QG, UK",51.4171196,-0.1265812,Lambeth
704,Brix Fried Chicken,"238 Coldharbour Ln, Brixton, London SW9 8SD, UK",51.465404,-0.103333,Lambeth
705,Chicago Pizza,"129 S Lambeth Rd, Vauxhall, London SW8 1XB, UK",51.4787696,-0.1232937,Lambeth
706,Chicken Cottage Streatham Common,"Bridge Parade, Streatham Common, Streatham, London SW16 6EW, UK",51.4262202,-0.1308661,Lambeth
707,"Chicken Cottage, Streatham Hill","83 Streatham Hill, Streatham, London SW2 4RU, UK",51.4392258,-0.1258217,Lambeth
708,Chicken Treat,"54 New Park Rd, Streatham Hill, London SW2 4UN, UK",51.4483878,-0.1257459,Lambeth
709,Chicken Valley,"79 Lower Marsh, Lambeth, London SE1 7AB, UK",51.5018173,-0.1108953,Lambeth
710,Chicken World Brixton,"104 Acre Ln, Brixton, London SW2 5RA, UK",51.4597424,-0.1233462,Lambeth
711,Dallas,"50 Brixton Rd, London SW9 6BT, UK",51.47933339999999,-0.1119132,Lambeth
712,Dallas Chicken and Ribs,"25 York Rd, Lambeth, London SE1 7NJ, UK",51.5036673,-0.1149153,Lambeth
713,Dallas Peri Peri,"355 Wandsworth Rd, London SW8 2JH, UK",51.4749821,-0.1315454,Lambeth
714,Dollar Chicken Griller,"72-74 Loughborough Rd, Brixton, London SW9 7SB, UK",51.4706973,-0.1084435,Lambeth
715,Dollar USA Chicken,"320 Kennington Ln, Lambeth, London SE11 5HY, UK",51.4865675,-0.1190562,Lambeth
716,Fancy Funkin Chicken @ Market House,"443 Coldharbour Ln, Brixton, London SW9 8LN, UK",51.46140399999999,-0.114032,Lambeth
717,Favorite Chicken & Ribs,"239 Gipsy Rd, West Norwood, London SE27 9QY, UK",51.4276917,-0.0870512,Lambeth
718,Halal Vis Chicken,"242 Wandsworth Rd, Nine Elms, London SW8 2JS, UK",51.47476109999999,-0.1321063,Lambeth
719,JJ Chicken Express,"134 Stockwell Rd, Stockwell, London SW9 9HR, UK",51.4678781,-0.1186146,Lambeth
720,KFC,"467 Brixton Rd, Brixton, London SW9 8HH, UK",51.4615512,-0.1150275,Lambeth
721,KFC,"116 Streatham High Rd, Streatham, London SW16 1BW, UK",51.43417549999999,-0.1286395,Lambeth
722,KFC,"489 Norwood Rd, West Norwood, London SE27 9NJ, UK",51.4357104,-0.104063,Lambeth
723,Lion's Fried Chicken,"Upper Norwood, London SE19 1TQ, United Kingdom",51.4198494,-0.0825129,Lambeth
724,M M Fried Chicken,"274a Norwood Rd, West Norwood, London SE27 9AJ, UK",51.436757,-0.105206,Lambeth
725,Maxin Chicken,"272 Knight's Hill, West Norwood, London SE27 0QP, UK",51.4228612,-0.1058389,Lambeth
726,Mm best fried chicken And Pizza,"27 Streatham Vale, Streatham, London SW16 5SE, UK",51.417246,-0.1367383,Lambeth
727,Mori Fried Chicken,"Tulse Hill, London SW2 3DJ, United Kingdom",51.4404303,-0.1062982,Lambeth
728,Morley's Stockwell,"59 Stockwell Rd, Stockwell, London SW9 9UA, UK",51.4696042,-0.1197624,Lambeth
729,Morley's Streatham,"46B Sunnyhill Rd, Streatham, London SW16 2UH, UK",51.4304336,-0.1282484,Lambeth
730,Morley's Streatham,"14 Greyhound Ln, Streatham, London SW16 5SD, UK",51.4185378,-0.1344363,Lambeth
731,Morlys Streatham High Road,"Hopton Parade, Streatham High Rd, Streatham, London SW16 6EP, UK",51.42529769999999,-0.1305138,Lambeth
732,Other Side Fried,"Pop Brixton, 49 Brixton Station Rd, Brixton, London SW9 8PQ, UK",51.4635255,-0.1123267,Lambeth
733,Peri Peri Chicken Bites,"242 Wandsworth Rd, Nine Elms, London SW8 4ES, UK",51.4748247,-0.132253,Lambeth
734,Roosters Clapham High Street,"140 Clapham High St, Clapham, London SW4 7UH, UK",51.46279730000001,-0.1357623,Lambeth
735,Roosters Piri Piri,"118 Streatham Hill, Streatham, London SW2 4TX, UK",51.4401301,-0.1260079,Lambeth
736,Roosters Spot,"161 S Lambeth Rd, Stockwell, London SW8 1XW, UK",51.4777565,-0.1232302,Lambeth
737,Shalamar,"3 The Pavement, Clapham, London SW4 0HY, UK",51.4619265,-0.138228,Lambeth
738,Tennessee Express,"40 Vauxhall St, Lambeth, London SE11 5LT, UK",51.4891587,-0.1175265,Lambeth
739,Thunderbird Fried chicken,"Market Row, Brixton, London SW9 8LB, UK",51.4619767,-0.1133632,Lambeth
740,Bose Fried Chicken,"Forest Hill, London SE26 4QJ, United Kingdom",51.4317071,-0.0602215,Lewisham
741,Brix Fried Chicken,"47 Brockley Rise, Forest Hill, London SE23 1JG, UK",51.4442163,-0.0428388,Lewisham
742,Chick Chicken,"5A Clifton Rise, New Cross, London SE14 6EP, UK",51.47599049999999,-0.037039,Lewisham
743,Chick Chicken,"81 Rushey Green, Catford, London SE6 4AF, UK",51.4480647,-0.0174428,Lewisham
744,Chicken Palace,"136 Marvels Ln, London SE12 9PG, UK",51.4338437,0.0271768,Lewisham
745,Fantastic Morley,"95 Endwell Rd, Brockley, London SE4 2NF, UK",51.4658021,-0.0381792,Lewisham
746,Fantastic Morley chicken,"Stanstead Rd, Forest Hill, London SE23 1JB, UK",51.442434,-0.0345573,Lewisham
747,Favorable,"41 Burnt Ash Hill, Lee, London SE12 0AE, UK",51.4481137,0.0135606,Lewisham
748,Favorite Chicken & Ribs,"Station Buildings, Catford Rd, Catford, London SE6 4QZ, UK",51.4447203,-0.023311,Lewisham
749,Favorite Chicken & Ribs,"358 Verdant Ln, London SE6 1TP, UK",51.43396680000001,0.009240199999999999,Lewisham
750,Favorite Chicken & Ribs,"487 Bromley Rd, Bromley BR1 4PQ, UK",51.4237939,-0.0032868,Lewisham
751,Favourable Chicken,"11 Staplehurst Rd, Hither Green, London SE13 5ND, UK",51.45285399999999,-0.0008954999999999999,Lewisham
752,Ferfect Fried Chicken,"24 London Rd, Forest Hill, London SE23 3HF, UK",51.439502,-0.0548638,Lewisham
753,Forest Grill,"52a London Rd, Forest Hill, London SE23 3HF, UK",51.43993769999999,-0.0558863,Lewisham
754,Krispies,"114 Hither Green Ln, London SE13 6QA, UK",51.453706,-0.008466,Lewisham
755,M M Fried Chicken,"101 Dartmouth Rd, Forest Hill, London SE23 3HT, UK",51.4360307,-0.05513000000000001,Lewisham
756,M M Fried Chicken,"297 Sydenham Rd, London SE26 5EW, UK",51.4272921,-0.04052720000000001,Lewisham
757,Metro's Fried Chicken - Ladywell,"Lewisham, London SE13 7UZ, United Kingdom",51.4566172,-0.0206231,Lewisham
758,Metro's Fried Chicken Catford,"21 Rushey Green, Catford, London SE6 4AS, UK",51.4498712,-0.0166473,Lewisham
759,Metro's Fried Chicken Deptford,"145 Brookmill Rd, London SE8 4JH, UK",51.4685339,-0.0186491,Lewisham
760,Monleys,"337 Stanstead Rd, London SE6 4UE, UK",51.44209799999999,-0.0329853,Lewisham
761,Morley's Bellingham,"50 Randlesdown Rd, Bellingham, London SE6 3BT, UK",51.4322738,-0.0216686,Lewisham
762,Morley's Bromley Road,"213 Bromley Rd, Catford, London SE6 2PG, UK",51.4338942,-0.0173377,Lewisham
763,Morley's Catford,"75 Dowanhill Rd, London SE6 1SY, UK",51.4400814,-0.0061944,Lewisham
764,Morley's Deptford,"74 Loampit Vale, London SE13 7SN, UK",51.4648145,-0.0163326,Lewisham
765,Morley's Forest Hill,"5 Westbourne Dr, Forest Hill, London SE23 2ND, UK",51.43990040000001,-0.0510458,Lewisham
766,Morley's Fried Chicken New Cross,"289 New Cross Rd, New Cross, London SE14 6AS, UK",51.4754984,-0.038437,Lewisham
767,Morley's Fried Chicken Perry Hill,"5 St George's Parade, Perry Hill, London SE6 4DT, United Kingdom",51.4389109,-0.0332485,Lewisham
768,Morley's Fried Chicken Rushey Green,"165 Rushey Green, Catford, London SE6 4BD, UK",51.4453026,-0.019532,Lewisham
769,Morley's Fried Chicken Sandhurst Road,"Sandhurst Rd, Catford, London SE6 1DH, UK",51.4420027,-0.009694200000000002,Lewisham
770,Morley's Lee,"9 Burnt Ash Hill, Lee, London SE12 0AA, UK",51.449253,0.0130806,Lewisham
771,Morleys Fried Chicken Brockley Rise,"123 Brockley Rise, Forest Hill, London SE23 1JP, UK",51.4475206,-0.0419221,Lewisham
772,Morleys Fried Chicken Bromley,"453 Downham Way, Bromley BR1 5HS, UK",51.4279427,0.0132347,Lewisham
773,Morleys Fried Chicken Peckham,"901 Old Kent Rd, London SE15 1NL, UK",51.4786412,-0.0539155,Lewisham
774,Mowley's New Cross,"491 New Cross Rd, New Cross, London SE14 6TQ, UK",51.4751896,-0.0271828,Lewisham
775,Paranhodu Korean Restaurant,"125 Lewisham Way, New Cross, London SE14 6QJ, UK",51.472505,-0.0315132,Lewisham
776,Perfect Chicken,"263 Bromley Rd, Catford, London SE6 2RA, UK",51.4325555,-0.0168515,Lewisham
777,Perfect Fried Chicken,"16 Loampit Hill, London SE13 7SW, UK",51.4659311,-0.0192559,Lewisham
778,Perfect Fried Chicken,"108 Deptford High St, Deptford, London SE8 4BX, UK",51.4779555,-0.0258576,Lewisham
779,Perfect Fried Chicken,"445 Brockley Rd, Brockley, London SE4 2PJ, UK",51.4528725,-0.0384527,Lewisham
780,Perfect Fried Chicken,"644A Downham Way, Bromley BR1 5HN, UK",51.4305525,0.0206827,Lewisham
781,Perfect Fried Chicken London,"341 New Cross Rd, New Cross, London SE14 6AT, UK",51.4758254,-0.0358642,Lewisham
782,Perfect Fried Chicken Wings Chicken Burgers,"London SE14 5AH, United Kingdom",51.4747223,-0.04626,Lewisham
783,Quality chicken and ribs,"311 Baring Rd, Grove Park, London SE12 0DZ, UK",51.43039109999999,0.0214356,Lewisham
784,Southend Fried Chicken,"305 Southend Ln, London SE6 3ND, UK",51.427233,-0.0301427,Lewisham
785,Tastie Chicken,"167 Lewisham High St, Lewisham, London SE13 6AA, UK",51.4603524,-0.0108794,Lewisham
786,Tennessee Kebab shop,"276 Lee High Rd, Lewisham, London SE13 5PJ, UK",51.4585157,0.0035252,Lewisham
787,The Best Kebab & Fried Chicken,"19 Burnt Ash Rd, Lee, London SE12 8RG, UK",51.4556313,0.0117015,Lewisham
788,The Village Chicken Hut,"222 Algernon Rd, Lewisham, London SE13 7UZ, UK",51.45691189999999,-0.0199807,Lewisham
789,Chick and Beers,"282 Burlington Rd, New Malden KT3 4NL, UK",51.4001189,-0.2386275,Merton
790,Chicken & Grill Express,"188 High St, Wimbledon, London SW19 2BN, UK",51.4243768,-0.2159079,Merton
791,Chicken & Grill Express,"188 High Street Colliers Wood, Colliers Wood, London SW19 2BN, UK",51.418199,-0.178305,Merton
792,Chicken Circle,"295-297 Mitcham Rd, Tooting, London SW17 9JQ, UK",51.421433,-0.160642,Merton
793,Chicken Cottage Wimbledon,"393 Durnsford Rd, Wimbledon, London SW19 8EE, UK",51.43925280000001,-0.1969549,Merton
794,Chicken Trio,"33 High Street Colliers Wood, Colliers Wood, London SW19 2JE, UK",51.4207931,-0.1753788,Merton
795,Chicken World Mitcham,"345 London Rd, Mitcham CR4 4BE, UK",51.3998294,-0.1698623,Merton
796,Dallas Chicken & Ribs,"102 Green Ln, Morden SM4 6SS, UK",51.3892183,-0.196431,Merton
797,Dallas London,"240 Merton High St, South Wimbledon, London SW19 1AU, UK",51.4157374,-0.1922665,Merton
798,Favorite Chicken & Ribs,"37 London Rd, Tooting, London SW17 9JR, UK",51.4191961,-0.1616902,Merton
799,Favorite Chicken & Ribs Raynes Park,"Station Buildings, Coombe Ln, Wimbledon, London SW20 8NE, UK",51.4094046,-0.2296576,Merton
800,Galitos Piri Piri Morden,"6 Morden Court Parade, London Rd, Morden SM4 5HJ, United Kingdom",51.3999561,-0.1965326,Merton
801,KFC,"81-83 The Broadway, Wimbledon, London SW19 1QE, UK",51.41948259999999,-0.2023941,Merton
802,Kentiss,"Fairgreen Parade, 12 London Rd, Mitcham CR4 3NA, UK",51.4052109,-0.1645229,Merton
803,King Peri Peri Chicken & Pizza,"50 Central Rd, Morden SM4 5RP, UK",51.3974462,-0.1897535,Merton
804,MM Fried Chicken shop,"205 Streatham Rd, Mitcham CR4 2AJ, UK",51.4169534,-0.1518876,Merton
805,Mario's Fried Chicken & Grill,"19 Rowan Rd, Streatham, London SW16 5JF, UK",51.4093203,-0.1422788,Merton
806,Morden Brook,"Lower Morden Ln, Morden SM4 4SS, UK",51.3910916,-0.2219813,Merton
807,Morley's Mitcham Eastfields,"71 Eastfields Rd, Mitcham CR4 2LS, UK",51.4082531,-0.15522,Merton
808,Tasty Chicken,"Mitcham CR4 2JB, United Kingdom",51.4081943,-0.1629875,Merton
809,Tennesee Express,"242 Merton Rd, South Wimbledon, London SW19 1EQ, UK",51.415904,-0.192321,Merton
810,Ahmed's Fried Chicken & GRILL,"61 Vicarage Ln, London E15 4HG, UK",51.540312,0.010873,Newham
811,Alif Chicken & Pizza,"184 The Grove, London E15 1NS, UK",51.5450445,0.004336200000000001,Newham
812,Burj Chicken & Pizza Shop,"22 W Ham Ln, London E15 4SA, UK",51.53894589999999,0.0044255,Newham
813,Chicken Klub,"5 Pier Rd, Royal Docks, London E16 2JJ, UK",51.4998049,0.0633238,Newham
814,Chicken Village London,"105 Plaistow Rd, London E15 3ET, UK",51.5338013,0.011161,Newham
815,Chubby Chicken,"142 Church Rd, Manor Park, London E12 6HL, UK",51.5488493,0.0606979,Newham
816,Daily Fry & Spice,"426 Katherine Rd, Forest Gate, London E7 8NP, UK",51.543251,0.036804,Newham
817,Dallas Fried Chicken and Ribs,"157 Barking Rd, Canning Town, London E16 4HQ, UK",51.5179971,0.0127545,Newham
818,Dixy Chicken,"771 Romford Rd, Manor Park, London E12 5AN, UK",51.5518842,0.0503033,Newham
819,Dixy Chicken,"282 Barking Rd, East Ham, London E6 3BA, UK",51.53244340000001,0.05147069999999999,Newham
820,Dixy Fried Chicken,"370 High St N, Manor Park, London E12 6PH, UK",51.5447081,0.0497489,Newham
821,Dixy Fried Chicken,"907 Romford Rd, Manor Park, London E12 5JT, UK",51.5541937,0.0571578,Newham
822,E12 Chicken and Pizza,"817 Romford Rd, Manor Park, London E12 6EA, UK",51.55243609999999,0.05259059999999999,Newham
823,East Ham Fried Chicken,"17 High St S, East Ham, London E6 6EN, UK",51.5314272,0.0556953,Newham
824,FFC Canning Town,"52 Hermit Rd, Canning Town, London E16 4LF, UK",51.51999559999999,0.0122242,Newham
825,Favorite Chicken & Ribs,"547 Barking Rd, Plaistow, London E13 9EZ, UK",51.5266639,0.030151,Newham
826,Grill N Thrill,"80 Plashet Rd, Upton Park, London E13 0RQ, UK",51.5373557,0.02850049999999999,Newham
827,King Roster Fried Chicken & Chips Shop,"Boundary Rd, London E13 9QF, UK",51.5246732,0.0391522,Newham
828,Krispy Fried Chicken,"Alma St, London E15 1QE, UK",51.5465157,-0.0005087,Newham
829,Le Royal,"387 Prince Regent Ln, London E16 3JP, UK",51.5133652,0.031943,Newham
830,Mighty Chicken & Ribs London,"111-113 Leytonstone Rd, London E15 1JA, UK",51.5482854,0.005397,Newham
831,"Moubon - Fried Chicken, Pizza, Burgers, Wraps & Indian Take Away","3DW, 111 Central Park Rd, East Ham, London E6 3DW, UK",51.5287848,0.0434122,Newham
832,PAPA'S Chicken,"37A Woodgrange Rd, Forest Gate, London E7 8BA, UK",51.5480037,0.0249995,Newham
833,PFC Chicken & Grill,"801 Romford Rd, Manor Park, London E12 5AN, UK",51.55228220000001,0.051807,Newham
834,Pepe's Piri Piri,"135 High St N, East Ham, London E6 1HZ, UK",51.5369249,0.0518234,Newham
835,Perfect Chicken,"11 Vicarage Ln, London E6 6AD, UK",51.52682799999999,0.06110989999999999,Newham
836,Perfect Fried Chicken,"50 Woodgrange Rd, Forest Gate, London E7 0QH, UK",51.5488635,0.0250371,Newham
837,Perfect Fried Chicken,"Stratford Housing, The Grove, London E15 1NS, UK",51.5429901,0.003449,Newham
838,Plaistow Fried Chicken and Pizza,"8A High St, Plaistow, London E13 0AJ, UK",51.53094830000001,0.0196314,Newham
839,Plaistow Pizza & Chicken,"8 High St, Plaistow, London E13 0AJ, UK",51.5309373,0.0196663,Newham
840,Rotisserie - Grilled Chicken,"Excel, 1 Western Gateway, Royal Docks, London E16 1XL, UK",51.5082289,0.0293296,Newham
841,Royal Chicken London,"12 Plashet Grove, East Ham, London E6 1AE, UK",51.5372435,0.0352606,Newham
842,Sam's Fried Chicken,"389 Barking Rd, East Ham, London E6 2JT, UK",51.5333073,0.0548623,Newham
843,Silvertown Chicken Spot,"2 Albert Rd, Royal Docks, London E16 2DW, UK",51.50222429999999,0.0460152,Newham
844,Southern Fried Chicken,"580 Barking Rd, Plaistow, London E13 9JU, UK",51.526621,0.030738,Newham
845,Southern Fried Chicken,"Plaistow, London E13 8EQ, United Kingdom",51.5200487,0.0173525,Newham
846,Tasty Chicken Hut,"442 Barking Rd, East Ham, London E6 2SA, UK",51.5336748,0.0626481,Newham
847,Tennessee Fried Chicken,"228 High St N, Manor Park, London E12 6SB, UK",51.5403367,0.0509615,Newham
848,The Robin Hood Thai Restaurant,"Epping New Rd, Loughton IG10 4AA, UK",51.6557973,0.0398954,Newham
849,Woody's,"207 High St N, East Ham, London E6 1JG, UK",51.5391979,0.05097169999999999,Newham
850,Al-Mustafa Spicy Chicken,"237 Cranbrook Rd, Ilford IG1 4TD, UK",51.56341,0.067203,Redbridge
851,Chesters Great Tasting Chicken,"173 Ilford Ln, Ilford IG1 2RT, UK",51.5529918,0.073664,Redbridge
852,Chesters Ilford,"705 High Rd, Ilford IG3 8RH, UK",51.5650789,0.1015565,Redbridge
853,Chestersway Chicken Ilford,"327 Ley St, Ilford IG1 4AA, UK",51.56414299999999,0.082761,Redbridge
854,Chicken Corner,"59 Green Ln, Ilford IG1 1XG, UK",51.559107,0.08526399999999999,Redbridge
855,Chicken Cottage South Woodford,"71 High Rd, South Woodford, London E18 2QP, UK",51.5942976,0.0221652,Redbridge
856,Chicken House,"661 High Rd, Ilford IG3 8RA, UK",51.5645399,0.0989723,Redbridge
857,Chicken Hut Ilford,"83 Ilford Hill, Ilford IG1 2DG, UK",51.5585941,0.06982089999999999,Redbridge
858,Chicks Chicken & Pizza,"12 High St, Ilford IG6 2DF, UK",51.5888985,0.08143199999999999,Redbridge
859,Chunky Chicken and Pizza,"1 Mulberry Way, South Woodford, London E18 1EB, UK",51.592264,0.028232,Redbridge
860,Dixy Chicken,"79 Ilford Hill, Ilford IG1 2DG, UK",51.558497,0.0697337,Redbridge
861,Dixy Fried Chicken & Pizza,"67 High St, Ilford IG6 2AF, UK",51.5904302,0.0820461,Redbridge
862,Favorite Chicken & Ribs,"Rex Parade, 2, Snakes Ln E, Woodford Green IG8 7HU, United Kingdom",51.6079473,0.0370108,Redbridge
863,Favourite Chicken & Ribs Ilford,"385 Eastern Ave, Ilford IG2 6LR, UK",51.5764917,0.0677083,Redbridge
864,Flavours Caribbean,"2, Jubilee Market, Saint Barnabas Road, Woodford, Woodford Green IG8 7BZ, United Kingdom",51.6075606,0.0360929,Redbridge
865,Gul's Grill,"218 Redbridge Ln E, Ilford IG4 5BQ, UK",51.5769866,0.045978,Redbridge
866,KFC,"157 High St, Ilford IG6 2AJ, UK",51.592757,0.084025,Redbridge
867,Morley's Fried Chicken,"Grays Corner, 19 Ley St, Ilford IG2 7RQ, UK",51.5730949,0.0834355,Redbridge
868,Munchies Fried Chicken & Pizza,"319 High Rd, Dagenham, Ilford IG1 1NR, UK",51.5605993,0.08115010000000002,Redbridge
869,Original Fried Chicken,"693 High Rd, Ilford IG3 8RH, UK",51.56488359999999,0.1008442,Redbridge
870,Pizza Hot Fried Chicken,"311 High Rd, Ilford IG1 1NR, UK",51.5606607,0.0809063,Redbridge
871,S S S Chicken Base Takeaway,"12 Goodmayes Ln, Ilford IG3 9SG, UK",51.5628277,0.1097485,Redbridge
872,SSS Chicken & Pizza,"825 High Rd, Ilford IG3 8TD, UK",51.56653619999999,0.108877,Redbridge
873,Tasty Chicken,"619 High Rd, Ilford IG3 8RE, UK",51.5639165,0.0972251,Redbridge
874,Yummy Chicken,"12 Goodmayes Rd, Ilford IG3 9UN, UK",51.5663425,0.1104183,Redbridge
875,米 kome japanese sushi,"610 Chigwell Rd, Woodford, Woodford Green IG8 8AA, UK",51.6057086,0.0510093,Redbridge
876,ASK Italian,"58-62 The Green, Twickenham TW2 5AB, UK",51.444499,-0.3421839,Richmond upon Thames
877,Byron,"26 Hill St, London TW9 1TW, UK",51.4589242,-0.3057997,Richmond upon Thames
878,Chicken City,"388 Richmond Rd, Twickenham TW1 2DY, UK",51.4556644,-0.3098977,Richmond upon Thames
879,China Garden,"110A High St, Teddington TW11 8JD, UK",51.42723729999999,-0.3284832,Richmond upon Thames
880,KFC,"7 King St, Twickenham TW1 3SD, UK",51.4460899,-0.3283523,Richmond upon Thames
881,La Fiamma,"Old Park House, Hampton Ct Rd, East Molesey KT8 9BY, United Kingdom",51.4068812,-0.3385917,Richmond upon Thames
882,Revolution London - Richmond,"4 Whittaker Ave, Richmond TW9 1EH, UK",51.45858,-0.30758,Richmond upon Thames
883,Ribs & Burgers Teddington,"4 Broad St, Teddington TW11 8RF, UK",51.4260192,-0.3395105,Richmond upon Thames
884,Richmond Vault Beer Cellar & Restaurant,"5 Hill St, Richmond TW9 1SX, UK",51.459385,-0.306334,Richmond upon Thames
885,Sam's Chicken,"339 Upper Richmond Rd W, East Sheen, London SW14 8QR, UK",51.46478,-0.264931,Richmond upon Thames
886,Taberu Kingston,"35 High St, Hampton Wick, Kingston upon Thames KT1 4DA, UK",51.412603,-0.311149,Richmond upon Thames
887,The Hogarth,"58 Broad St, Teddington TW11 8QY, UK",51.42585,-0.336763,Richmond upon Thames
888,The Prince Albert,"30 Hampton Rd, Twickenham TW2 5QB, UK",51.4421392,-0.3442193,Richmond upon Thames
889,The Wharf,"Manor Rd, Teddington TW11 8BG, United Kingdom",51.4308774,-0.3252166,Richmond upon Thames
890,The White Cross,"Riverside, Richmond TW9 1TH, UK",51.4589375,-0.3083072,Richmond upon Thames
891,Wagamama,"3 Hill St, Richmond TW9 1SX, UK",51.4594228,-0.3064330000000001,Richmond upon Thames
892,AFC Fried Chicken,"10a Peckham Park Rd, London SE15 6TW, UK",51.4830149,-0.0654727,Southwark
893,C F C Fried Chicken,"133 Commercial Way, Peckham, London SE15 6DB, UK",51.47748,-0.07149599999999999,Southwark
894,Camberwell Grilled Chicken,"Camberwell, London SE5 0RW, United Kingdom",51.47423819999999,-0.0939501,Southwark
895,Chick chicken,"113A Peckham High St, Peckham, London SE15 5SE, UK",51.47407,-0.06829099999999999,Southwark
896,Chicken Cottage,"278 Walworth Rd, Walworth, London SE17 2TE, UK",51.4873632,-0.0955082,Southwark
897,Chicken Cottage London Bridge,"62 Borough High St, London Bridge St, London SE1 1XF, UK",51.50401799999999,-0.0912151,Southwark
898,Chicken Express,"152 Lower Rd, London SE16 2UG, UK",51.492656,-0.04651,Southwark
899,Chicken Express,"53 Denmark Hill, Camberwell, London SE5 8RS, UK",51.4717802,-0.0928205,Southwark
900,Elite Peri Peri,"170 Jamaica Rd, Bermondsey, London SE16 4DA, UK",51.4982017,-0.0627635,Southwark
901,FUSION GRILL,"233 Waterloo Rd, South Bank, London SE1 8XH, UK",51.49974,-0.106772,Southwark
902,Grilled Chicken,"138 Rye Ln, Peckham, London SE15 4RZ, UK",51.46845219999999,-0.0676729,Southwark
903,King Flavor Chicken London,"153 East St, London SE17 2SB, UK",51.4896618,-0.0889162,Southwark
904,King Valley Fried Chicken House,"56 Gibbon Rd, London SE15 3XE, UK",51.4665519,-0.051711,Southwark
905,Kinglake Fried Chicken,"109 Kinglake St, London SE17 2RD, UK",51.4873978,-0.0816619,Southwark
906,Lions Fried Chicken London,"161-163 Queen's Rd, Peckham, London SE15 2ND, UK",51.4734512,-0.0567716,Southwark
907,Maxy's Fried Chicken,"175 New Kent Rd, Elephant and Castle, London SE1 4AG, UK",51.4942832,-0.09192249999999999,Southwark
908,Merlie Fried Chicken,"99 Southampton Way, Camberwell, London SE5 7SX, UK",51.47872049999999,-0.0860416,Southwark
909,Morley's Chicken Shop,"275 Southwark Park Rd, Bermondsey, London SE16 3TP, UK",51.4922571,-0.0614263,Southwark
910,Morley's Herne Hill,"25 Norwood Rd, Herne Hill, London SE24 9AA, UK",51.4519635,-0.1011983,Southwark
911,Morley's London,"163 Rye Ln, Peckham, London SE15 4TL, UK",51.4685916,-0.0674375,Southwark
912,Morley's chicken Kent Road,"161 New Kent Rd, London SE1 4AG, UK",51.4942977,-0.09242629999999999,Southwark
913,Morleys Fried Chicken,"10 Peckham High St, Peckham, London SE15 5DT, UK",51.47357359999999,-0.07278540000000001,Southwark
914,Morleys Fried Chicken Peckham,"189 Queen's Rd, Peckham, London SE15 2ND, UK",51.4734107,-0.0559226,Southwark
915,Morleys Fried Chicken Southwark,"60 Great Dover St, London SE1 4YF, UK",51.49741290000001,-0.0897582,Southwark
916,Morleys Walworth Road,"98 East St, Walworth, London SE17 2DQ, UK",51.4888168,-0.0916705,Southwark
917,Mother Clucker,"FLAT IRON SQUARE, Union St, London SE1 1TD, UK",51.50420219999999,-0.0952156,Southwark
918,New Dixie Grill Peckham,"16 Peckham High St, Peckham, London SE15 5DT, UK",51.4734621,-0.07242889999999999,Southwark
919,Original Peri Peri Chicken,"69 Morley St, Newington, London SE1 7QZ, UK",51.499206,-0.109008,Southwark
920,Other Side Fried,"Peckham Levels, 95A Rye Ln, Peckham, London SE15 4ST, UK",51.4707443,-0.0680643,Southwark
921,PFC,"219 Camberwell New Rd, Camberwell, London SE5 0TJ, UK",51.4776691,-0.1015904,Southwark
922,Perfect Chicken,"259 Old Kent Rd, London SE1 5LU, UK",51.4895343,-0.0788603,Southwark
923,Perfect Fried Chicken,"Lordship Ln, East Dulwich, London SE22 8JG, UK",51.4530615,-0.0772866,Southwark
924,Peri Peri Grill,"225 Camberwell New Rd, Camberwell, London SE5 0TH, UK",51.4773259,-0.1006368,Southwark
925,Rooster's Hut London,"177 Rye Ln, Peckham, London SE15 4TP, UK",51.46816459999999,-0.06713,Southwark
926,All Bar One Sutton,"2 Hill Rd, Sutton SM1 1DZ, UK",51.3621337,-0.1934634,Sutton
927,Chicken Express,"Worcester Park KT4 8RF, United Kingdom",51.37988499999999,-0.2437403,Sutton
928,Chicken Hut,"387 Croydon Rd, Croydon CR0 3HP, UK",51.3673384,-0.153139,Sutton
929,Chicken Land,"260 High St, Sutton SM1 1PG, UK",51.3677641,-0.1948553,Sutton
930,Chicken World Sutton,"37 Stonecot Hill, Sutton SM3 9HH, UK",51.3844413,-0.2127609,Sutton
931,Chicken is standerd,"21 The Broadway, Croydon CR0 4QR, UK",51.3668888,-0.1318848,Sutton
932,Favorite Chicken & Ribs,"512 London Rd, Sutton SM3 8HW, UK",51.3713406,-0.227292,Sutton
933,Favorite Chicken & Ribs,"371 Green Wrythe Ln, Carshalton SM5 1JQ, UK",51.3842183,-0.1741128,Sutton
934,Favorite Chicken & Ribs,"50 Stafford Rd, Wallington SM6 9AY, UK",51.3585319,-0.145223,Sutton
935,Fish R Us,"The Market, 17 Wrythe Ln, Sutton, Carshalton SM5 1AG, UK",51.3830141,-0.1880662,Sutton
936,Food Angels,"360 Middleton Rd, Carshalton SM5 1HA, UK",51.3846658,-0.1749736,Sutton
937,KFC,"114 Central Rd, Worcester Park KT4 8DU, UK",51.378871,-0.2418617,Sutton
938,KFC,"56 The Market, Sutton SM1 3HE, UK",51.383167,-0.1901338,Sutton
939,KFC,"200-202 High St, Sutton SM1 1NR, UK",51.366117,-0.194161,Sutton
940,Kokoro Sutton,"162 High St, Sutton SM1 1LX, UK",51.3646866,-0.1935485,Sutton
941,Koleey,"Mollison Square, Wallington SM6 9DA, UK",51.3534012,-0.1343946,Sutton
942,Millennium Fish Bar And Southern Fried Chicken,"150 Stanley Park Rd, Carshalton SM5 3JG, UK",51.3548315,-0.1627773,Sutton
943,Morley's Sutton,"362 High St, Sutton SM1 1QE, UK",51.3709353,-0.1945055,Sutton
944,Morleys Fried Chicken,"220 Croydon Rd, Mitcham, Wallington, Croydon CR0 3JJ, UK",51.3679434,-0.1324152,Sutton
945,Number One Thai Restaurant,"1 Cheam Rd, Sutton SM1 1SN, UK",51.3611722,-0.1925994,Sutton
946,O'Neill's Sutton,"37 High St, Sutton SM1 1DJ, UK",51.3610154,-0.1922471,Sutton
947,Original Peri Peri Chicken,"394 Green Wrythe Ln, Carshalton SM5 1JF, UK",51.3843031,-0.1736834,Sutton
948,Royal Fried Chicken,"9 Green Wrythe Ln, Carshalton SM5 2DS, UK",51.3728161,-0.1685338,Sutton
949,"Taysti ( grill,fried chicken,burger)","204a Cheam Common Rd, Worcester Park KT4 8QJ, UK",51.3768398,-0.2369996,Sutton
950,The California,"267 Brighton Rd, Sutton SM2 5SU, UK",51.3441671,-0.1972708,Sutton
951,The Grange,"Beddington Park, London Rd, Wallington SM6 7BT, UK",51.37220550000001,-0.151203,Sutton
952,Time's Fried Chicken,"692 London Rd, Surrey SM3 9BY, UK",51.3759562,-0.2221643,Sutton
953,Absurd Bird Spitalfields,"54 Commercial St, Spitalfields, London E1 6LT, UK",51.5174472,-0.0733689,Tower Hamlets
954,Al-Safa Grill,"43 Burdett Rd, Mile End, London E3 4TN, UK",51.522738,-0.03389,Tower Hamlets
955,Bird,"Jubilee Place Unit 3, Wharf Kitchen, London E14 5NY, United Kingdom",51.5030557,-0.0186092,Tower Hamlets
956,Bite House,"365 Westferry Rd, Millwall, London E14 3RH, UK",51.4895882,-0.0210894,Tower Hamlets
957,Burdett Perfect Fried Chicken,"43 Thomas Rd, Mile End, London E14 7BE, UK",51.5162855,-0.0247884,Tower Hamlets
958,Chicken Run,"35 Toynbee St, Spitalfields, London E1 7NE, UK",51.5171559,-0.0741484,Tower Hamlets
959,Clutch Chicken,"4 Ravenscroft St, London E2 7QG, UK",51.5297844,-0.0712638,Tower Hamlets
960,Deshi fried chicken,"5B W India Dock Rd, Poplar, London E14 8EZ, UK",51.511505,-0.0277481,Tower Hamlets
961,Dixie Chicken,"361 Mile End Rd, Mile End, London E3 4QS, UK",51.5245299,-0.0367119,Tower Hamlets
962,Docklands Grill House,"46 Westferry Rd, Isle of Dogs, London E14 8LW, UK",51.4990032,-0.0260935,Tower Hamlets
963,Eastern Fried Chicken,"117 Cannon St Rd, Whitechapel, London E1 2LX, UK",51.512719,-0.06151089999999999,Tower Hamlets
964,Fast Food Corner London,"572 Mile End Rd, Mile End, London E3 4PH, UK",51.5251039,-0.033708,Tower Hamlets
965,Favorite Chicken & Ribs,"255 Bethnal Green Rd, London E2 6AH, UK",51.5264025,-0.0663622,Tower Hamlets
966,Fried & Grilled,"91 Watney St, Shadwell, London E1 2QE, UK",51.5112634,-0.0563861,Tower Hamlets
967,Fried Chicken and Waffles,"Unit 4 Wharf Kitchen, Jubilee Place, London E14 5NY, United Kingdom",51.50295759999999,-0.0175829,Tower Hamlets
968,I N S Fried Chicken,"280 Bethnal Green Rd, London E2 0AG, UK",51.5262569,-0.0653995,Tower Hamlets
969,KFC,"381 Mile End Rd, Bow, London E3 4QS, UK",51.5249236,-0.0358482,Tower Hamlets
970,LIMEHOUSE GRILL,"322 Burdett Rd, Poplar, London E14 7DL, UK",51.51251360000001,-0.0281007,Tower Hamlets
971,Limehouse Fried Chicken & Spice,"540 Commercial Rd, Limehouse, London E1 0HY, UK",51.51284,-0.041943,Tower Hamlets
972,Mother Clucker,"6 Dray Walk, Spitalfields, London E1 6NJ, UK",51.5210077,-0.07336129999999999,Tower Hamlets
973,Nanna Biriyani Restaurant,"14 Whitechapel Rd, Shadwell, London E1 1EW, UK",51.5167643,-0.0677403,Tower Hamlets
974,Original Al-Ikhwan,"187 Cannon St Rd, Whitechapel, London E1 2LX, UK",51.5145059,-0.0619142,Tower Hamlets
975,Original Fried Chicken,"214 Mile End Rd, Stepney Green, London E1 4LJ, UK",51.52145609999999,-0.0474242,Tower Hamlets
976,Pepe's Piri Piri London,"82 - 84 Brick Ln, Spitalfields, London E1 6RL, UK",51.5191819,-0.0716163,Tower Hamlets
977,Perfect Fried,"25A Aberfeldy St, Poplar, London E14 0NU, UK",51.5130467,-0.005555699999999999,Tower Hamlets
978,Perfect Fried Chicken,"74 Brady St, Whitechapel, London E1 5DW, UK",51.52176310000001,-0.05945230000000001,Tower Hamlets
979,Perfect Fried Chicken,"66 St Paul's Way, London E3 4AL, UK",51.5180217,-0.0262139,Tower Hamlets
980,Perfect Fried Chicken,"129 Leman St, Whitechapel, London E1 8EY, UK",51.5116624,-0.06875429999999999,Tower Hamlets
981,Perfect Fried Chicken,"512 Commercial Rd, London E1 0HY, UK",51.5130042,-0.0432865,Tower Hamlets
982,Perfect Fried Chicken London,"115 Devons Rd, London E3 3QX, UK",51.5213342,-0.0187645,Tower Hamlets
983,Perfect Fried Chicken London,"230 Whitechapel Rd, Whitechapel, London E1 1BJ, UK",51.51948059999999,-0.0567798,Tower Hamlets
984,Perfect Spice,"197 E India Dock Rd, Poplar, London E14 0ED, UK",51.5113537,-0.0124166,Tower Hamlets
985,Pizza Point,"280 Bethnal Green Rd, London E2 0AG, UK",51.5262521,-0.065411,Tower Hamlets
986,Poplar Fried Chicken London,"59 Poplar High St, Poplar, London E14 0DJ, UK",51.5092351,-0.0189433,Tower Hamlets
987,Pride Fried Chicken,"7A Selby St, Whitechapel, London E1 5BX, UK",51.5219399,-0.06420780000000001,Tower Hamlets
988,Roman fried chicken,"432 Roman Rd, Bow, London E3 5LU, UK",51.5318726,-0.0345705,Tower Hamlets
989,Royal Pfc London,"A, 178 Whitechapel Rd, Whitechapel, London E1 1BJ, UK",51.5191168,-0.0588015,Tower Hamlets
990,The Perfect,"The Quarterdeck, Isle of Dogs, London E14 8SH, UK",51.497864,-0.024775,Tower Hamlets
